$GPRMC,112331.00,A,2234.95540,N,11351.33480,E,2.16,0.00,110414,,,A*5B
$GPRMC,163505.00,A,2234.88040,N,11351.30060,E,1.62,91.96,110414,,,A*5B
$GPRMC,163525.00,A,2234.88760,N,11351.29460,E,3.24,150.48,110414,,,A*5B
$GPRMC,163526.00,A,2234.88700,N,11351.29340,E,3.78,243.43,110414,,,A*5B
$GPRMC,163527.00,A,2234.88520,N,11351.29280,E,5.40,198.43,110414,,,A*5B
$GPRMC,163528.00,A,2234.88520,N,11351.28920,E,11.34,270.00,110414,,,A*5B
$GPRMC,163529.00,A,2234.88460,N,11351.28800,E,3.78,243.43,110414,,,A*5B
$GPRMC,163530.00,A,2234.88340,N,11351.28620,E,5.40,236.31,110414,,,A*5B
$GPRMC,163531.00,A,2234.88280,N,11351.28500,E,3.78,243.43,110414,,,A*5B
$GPRMC,163532.00,A,2234.88220,N,11351.28320,E,5.40,251.57,110414,,,A*5B
$GPRMC,163533.00,A,2234.88100,N,11351.28320,E,3.78,180.00,110414,,,A*5B
$GPRMC,163534.00,A,2234.87980,N,11351.28380,E,3.78,153.43,110414,,,A*5B
$GPRMC,163535.00,A,2234.87920,N,11351.28440,E,1.62,135.00,110414,,,A*5B
$GPRMC,163536.00,A,2234.87920,N,11351.28620,E,5.40,90.00,110414,,,A*5B
$GPRMC,163537.00,A,2234.88040,N,11351.28740,E,5.40,45.00,110414,,,A*5B
$GPRMC,163538.00,A,2234.88160,N,11351.28860,E,5.40,45.00,110414,,,A*5B
$GPRMC,163539.00,A,2234.88400,N,11351.28980,E,7.56,26.57,110414,,,A*5B
$GPRMC,163540.00,A,2234.88640,N,11351.29160,E,9.72,36.87,110414,,,A*5B
$GPRMC,163541.00,A,2234.88940,N,11351.29460,E,13.50,45.00,110414,,,A*5B
$GPRMC,163542.00,A,2234.89240,N,11351.29700,E,11.34,38.66,110414,,,A*5B
$GPRMC,163543.00,A,2234.89540,N,11351.30000,E,13.50,45.00,110414,,,A*5B
$GPRMC,163544.00,A,2234.89840,N,11351.30300,E,13.50,45.00,110414,,,A*5B
$GPRMC,163545.00,A,2234.90200,N,11351.30720,E,17.28,49.40,110414,,,A*5B
$GPRMC,163546.00,A,2234.90620,N,11351.31140,E,19.44,45.00,110414,,,A*5B
$GPRMC,163547.00,A,2234.91040,N,11351.31560,E,19.44,45.00,110414,,,A*5B
$GPRMC,163548.00,A,2234.91520,N,11351.31980,E,21.06,41.19,110414,,,A*5B
$GPRMC,163549.00,A,2234.92000,N,11351.32460,E,23.22,45.00,110414,,,A*5B
$GPRMC,163550.00,A,2234.92420,N,11351.32880,E,19.44,45.00,110414,,,A*5B
$GPRMC,163551.00,A,2234.92900,N,11351.33300,E,21.06,41.19,110414,,,A*5B
$GPRMC,163552.00,A,2234.93260,N,11351.33660,E,17.28,45.00,110414,,,A*5B
$GPRMC,163553.00,A,2234.93620,N,11351.34020,E,17.28,45.00,110414,,,A*5B
$GPRMC,163554.00,A,2234.93980,N,11351.34260,E,13.50,33.69,110414,,,A*5B
$GPRMC,163555.00,A,2234.94280,N,11351.34560,E,13.50,45.00,110414,,,A*5B
$GPRMC,163556.00,A,2234.94580,N,11351.34800,E,11.34,38.66,110414,,,A*5B
$GPRMC,163557.00,A,2234.94880,N,11351.35040,E,11.34,38.66,110414,,,A*5B
$GPRMC,163558.00,A,2234.95120,N,11351.35280,E,11.34,45.00,110414,,,A*5B
$GPRMC,163559.00,A,2234.95420,N,11351.35580,E,13.50,45.00,110414,,,A*5B
$GPRMC,163600.00,A,2234.95780,N,11351.35880,E,15.12,39.81,110414,,,A*5B
$GPRMC,163601.00,A,2234.96140,N,11351.36240,E,17.28,45.00,110414,,,A*5B
$GPRMC,163602.00,A,2234.96560,N,11351.36660,E,19.44,45.00,110414,,,A*5B
$GPRMC,163603.00,A,2234.96980,N,11351.37080,E,19.44,45.00,110414,,,A*5B
$GPRMC,163604.00,A,2234.97400,N,11351.37500,E,19.44,45.00,110414,,,A*5B
$GPRMC,163605.00,A,2234.97880,N,11351.37860,E,19.44,36.87,110414,,,A*5B
$GPRMC,163606.00,A,2234.98300,N,11351.38280,E,19.44,45.00,110414,,,A*5B
$GPRMC,163607.00,A,2234.98660,N,11351.38700,E,17.28,49.40,110414,,,A*5B
$GPRMC,163608.00,A,2234.99020,N,11351.39060,E,17.28,45.00,110414,,,A*5B
$GPRMC,163609.00,A,2234.99380,N,11351.39420,E,17.28,45.00,110414,,,A*5B
$GPRMC,163610.00,A,2234.99680,N,11351.39780,E,15.12,50.19,110414,,,A*5B
$GPRMC,163611.00,A,2234.99980,N,11351.40080,E,13.50,45.00,110414,,,A*5B
$GPRMC,163612.00,A,2235.00340,N,11351.40380,E,15.12,39.81,110414,,,A*5B
$GPRMC,163613.00,A,2235.00640,N,11351.40680,E,13.50,45.00,110414,,,A*5B
$GPRMC,163614.00,A,2235.00940,N,11351.40980,E,13.50,45.00,110414,,,A*5B
$GPRMC,163615.00,A,2235.01300,N,11351.41340,E,17.28,45.00,110414,,,A*5B
$GPRMC,163616.00,A,2235.01660,N,11351.41640,E,15.12,39.81,110414,,,A*5B
$GPRMC,163617.00,A,2235.02020,N,11351.42000,E,17.28,45.00,110414,,,A*5B
$GPRMC,163618.00,A,2235.02380,N,11351.42300,E,15.12,39.81,110414,,,A*5B
$GPRMC,163619.00,A,2235.02680,N,11351.42660,E,15.12,50.19,110414,,,A*5B
$GPRMC,163620.00,A,2235.03100,N,11351.42960,E,17.28,35.54,110414,,,A*5B
$GPRMC,163621.00,A,2235.03460,N,11351.43380,E,17.28,49.40,110414,,,A*5B
$GPRMC,163622.00,A,2235.03880,N,11351.43740,E,17.28,40.60,110414,,,A*5B
$GPRMC,163623.00,A,2235.04300,N,11351.44160,E,19.44,45.00,110414,,,A*5B
$GPRMC,163624.00,A,2235.04720,N,11351.44580,E,19.44,45.00,110414,,,A*5B
$GPRMC,163625.00,A,2235.05080,N,11351.45000,E,17.28,49.40,110414,,,A*5B
$GPRMC,163626.00,A,2235.05500,N,11351.45360,E,17.28,40.60,110414,,,A*5B
$GPRMC,163627.00,A,2235.05860,N,11351.45720,E,17.28,45.00,110414,,,A*5B
$GPRMC,163628.00,A,2235.06160,N,11351.46020,E,13.50,45.00,110414,,,A*5B
$GPRMC,163629.00,A,2235.06460,N,11351.46260,E,11.34,38.66,110414,,,A*5B
$GPRMC,163630.00,A,2235.06700,N,11351.46500,E,11.34,45.00,110414,,,A*5B
$GPRMC,163631.00,A,2235.06880,N,11351.46680,E,7.56,45.00,110414,,,A*5B
$GPRMC,163632.00,A,2235.07000,N,11351.46860,E,5.40,56.31,110414,,,A*5B
$GPRMC,163633.00,A,2235.07120,N,11351.46920,E,3.78,26.57,110414,,,A*5B
$GPRMC,163645.00,A,2235.07120,N,11351.47220,E,3.24,37.59,110414,,,A*5B
$GPRMC,163646.00,A,2235.07240,N,11351.47340,E,5.40,45.00,110414,,,A*5B
$GPRMC,163647.00,A,2235.07360,N,11351.47460,E,5.40,45.00,110414,,,A*5B
$GPRMC,163648.00,A,2235.07540,N,11351.47640,E,7.56,45.00,110414,,,A*5B
$GPRMC,163649.00,A,2235.07780,N,11351.47880,E,11.34,45.00,110414,,,A*5B
$GPRMC,163650.00,A,2235.08020,N,11351.48120,E,11.34,45.00,110414,,,A*5B
$GPRMC,163651.00,A,2235.08320,N,11351.48420,E,13.50,45.00,110414,,,A*5B
$GPRMC,163652.00,A,2235.08620,N,11351.48720,E,13.50,45.00,110414,,,A*5B
$GPRMC,163653.00,A,2235.08920,N,11351.48960,E,11.34,38.66,110414,,,A*5B
$GPRMC,163654.00,A,2235.09220,N,11351.49260,E,13.50,45.00,110414,,,A*5B
$GPRMC,163655.00,A,2235.09520,N,11351.49500,E,11.34,38.66,110414,,,A*5B
$GPRMC,163656.00,A,2235.09880,N,11351.49680,E,13.50,26.57,110414,,,A*5B
$GPRMC,163657.00,A,2235.10240,N,11351.49860,E,13.50,26.57,110414,,,A*5B
$GPRMC,163658.00,A,2235.10540,N,11351.49920,E,9.72,11.31,110414,,,A*5B
$GPRMC,163659.00,A,2235.10840,N,11351.49920,E,9.72,360.00,110414,,,A*5B
$GPRMC,163700.00,A,2235.11140,N,11351.49740,E,11.34,329.04,110414,,,A*5B
$GPRMC,163701.00,A,2235.11440,N,11351.49440,E,13.50,315.00,110414,,,A*5B
$GPRMC,163702.00,A,2235.11680,N,11351.49140,E,11.34,308.66,110414,,,A*5B
$GPRMC,163703.00,A,2235.11980,N,11351.48720,E,17.28,305.54,110414,,,A*5B
$GPRMC,163704.00,A,2235.12340,N,11351.48180,E,21.06,303.69,110414,,,A*5B
$GPRMC,163705.00,A,2235.12700,N,11351.47640,E,21.06,303.69,110414,,,A*5B
$GPRMC,163706.00,A,2235.13060,N,11351.47100,E,21.06,303.69,110414,,,A*5B
$GPRMC,163707.00,A,2235.13420,N,11351.46500,E,23.22,300.96,110414,,,A*5B
$GPRMC,163708.00,A,2235.13780,N,11351.45840,E,24.84,298.61,110414,,,A*5B
$GPRMC,163709.00,A,2235.14200,N,11351.45180,E,24.84,302.47,110414,,,A*5B
$GPRMC,163710.00,A,2235.14620,N,11351.44520,E,24.84,302.47,110414,,,A*5B
$GPRMC,163711.00,A,2235.15040,N,11351.43800,E,27.00,300.26,110414,,,A*5B
$GPRMC,163712.00,A,2235.15460,N,11351.43140,E,24.84,302.47,110414,,,A*5B
$GPRMC,163713.00,A,2235.15940,N,11351.42420,E,29.16,303.69,110414,,,A*5B
$GPRMC,163714.00,A,2235.16420,N,11351.41640,E,30.78,301.61,110414,,,A*5B
$GPRMC,163715.00,A,2235.16900,N,11351.40860,E,30.78,301.61,110414,,,A*5B
$GPRMC,163716.00,A,2235.17380,N,11351.40080,E,30.78,301.61,110414,,,A*5B
$GPRMC,163717.00,A,2235.17920,N,11351.39300,E,30.78,304.70,110414,,,A*5B
$GPRMC,163718.00,A,2235.18460,N,11351.38460,E,32.94,302.74,110414,,,A*5B
$GPRMC,163719.00,A,2235.18940,N,11351.37620,E,30.78,299.74,110414,,,A*5B
$GPRMC,163720.00,A,2235.19420,N,11351.36840,E,30.78,301.61,110414,,,A*5B
$GPRMC,163721.00,A,2235.19960,N,11351.36060,E,30.78,304.70,110414,,,A*5B
$GPRMC,163722.00,A,2235.20380,N,11351.35280,E,29.16,298.30,110414,,,A*5B
$GPRMC,163723.00,A,2235.20920,N,11351.34560,E,29.16,306.87,110414,,,A*5B
$GPRMC,163724.00,A,2235.21400,N,11351.33840,E,29.16,303.69,110414,,,A*5B
$GPRMC,163725.00,A,2235.21940,N,11351.33000,E,32.94,302.74,110414,,,A*5B
$GPRMC,163726.00,A,2235.22480,N,11351.32160,E,32.94,302.74,110414,,,A*5B
$GPRMC,163727.00,A,2235.23020,N,11351.31380,E,30.78,304.70,110414,,,A*5B
$GPRMC,163728.00,A,2235.23560,N,11351.30540,E,32.94,302.74,110414,,,A*5B
$GPRMC,163729.00,A,2235.24100,N,11351.29700,E,32.94,302.74,110414,,,A*5B
$GPRMC,163730.00,A,2235.24700,N,11351.28860,E,34.56,305.54,110414,,,A*5B
$GPRMC,163731.00,A,2235.25240,N,11351.28020,E,32.94,302.74,110414,,,A*5B
$GPRMC,163732.00,A,2235.25840,N,11351.27180,E,34.56,305.54,110414,,,A*5B
$GPRMC,163733.00,A,2235.26440,N,11351.26340,E,34.56,305.54,110414,,,A*5B
$GPRMC,163734.00,A,2235.27040,N,11351.25500,E,34.56,305.54,110414,,,A*5B
$GPRMC,163735.00,A,2235.27580,N,11351.24660,E,32.94,302.74,110414,,,A*5B
$GPRMC,163736.00,A,2235.28180,N,11351.23760,E,36.72,303.69,110414,,,A*5B
$GPRMC,163737.00,A,2235.28780,N,11351.22980,E,32.94,307.57,110414,,,A*5B
$GPRMC,163738.00,A,2235.29380,N,11351.22200,E,32.94,307.57,110414,,,A*5B
$GPRMC,163739.00,A,2235.29920,N,11351.21420,E,30.78,304.70,110414,,,A*5B
$GPRMC,163740.00,A,2235.30520,N,11351.20700,E,30.78,309.81,110414,,,A*5B
$GPRMC,163741.00,A,2235.31120,N,11351.19920,E,32.94,307.57,110414,,,A*5B
$GPRMC,163742.00,A,2235.31660,N,11351.19200,E,29.16,306.87,110414,,,A*5B
$GPRMC,163743.00,A,2235.32260,N,11351.18480,E,30.78,309.81,110414,,,A*5B
$GPRMC,163744.00,A,2235.32800,N,11351.17760,E,29.16,306.87,110414,,,A*5B
$GPRMC,163745.00,A,2235.33400,N,11351.17100,E,29.16,312.27,110414,,,A*5B
$GPRMC,163746.00,A,2235.34000,N,11351.16380,E,30.78,309.81,110414,,,A*5B
$GPRMC,163747.00,A,2235.34540,N,11351.15660,E,29.16,306.87,110414,,,A*5B
$GPRMC,163748.00,A,2235.35080,N,11351.15000,E,29.16,309.29,110414,,,A*5B
$GPRMC,163749.00,A,2235.35560,N,11351.14340,E,27.00,306.03,110414,,,A*5B
$GPRMC,163750.00,A,2235.36100,N,11351.13620,E,29.16,306.87,110414,,,A*5B
$GPRMC,163751.00,A,2235.36580,N,11351.12960,E,27.00,306.03,110414,,,A*5B
$GPRMC,163752.00,A,2235.37120,N,11351.12300,E,29.16,309.29,110414,,,A*5B
$GPRMC,163753.00,A,2235.37660,N,11351.11640,E,29.16,309.29,110414,,,A*5B
$GPRMC,163754.00,A,2235.38200,N,11351.10980,E,29.16,309.29,110414,,,A*5B
$GPRMC,163755.00,A,2235.38740,N,11351.10380,E,27.00,311.99,110414,,,A*5B
$GPRMC,163756.00,A,2235.39280,N,11351.09720,E,29.16,309.29,110414,,,A*5B
$GPRMC,163757.00,A,2235.39880,N,11351.09120,E,29.16,315.00,110414,,,A*5B
$GPRMC,163758.00,A,2235.40420,N,11351.08460,E,29.16,309.29,110414,,,A*5B
$GPRMC,163759.00,A,2235.41020,N,11351.07740,E,30.78,309.81,110414,,,A*5B
$GPRMC,163800.00,A,2235.41620,N,11351.07020,E,30.78,309.81,110414,,,A*5B
$GPRMC,163801.00,A,2235.42280,N,11351.06360,E,30.78,315.00,110414,,,A*5B
$GPRMC,163802.00,A,2235.42880,N,11351.05640,E,30.78,309.81,110414,,,A*5B
$GPRMC,163803.00,A,2235.43540,N,11351.04920,E,32.94,312.51,110414,,,A*5B
$GPRMC,163804.00,A,2235.44200,N,11351.04200,E,32.94,312.51,110414,,,A*5B
$GPRMC,163805.00,A,2235.44800,N,11351.03540,E,29.16,312.27,110414,,,A*5B
$GPRMC,163806.00,A,2235.45400,N,11351.02880,E,29.16,312.27,110414,,,A*5B
$GPRMC,163807.00,A,2235.46000,N,11351.02280,E,29.16,315.00,110414,,,A*5B
$GPRMC,163808.00,A,2235.46600,N,11351.01620,E,29.16,312.27,110414,,,A*5B
$GPRMC,163809.00,A,2235.47200,N,11351.00960,E,29.16,312.27,110414,,,A*5B
$GPRMC,163810.00,A,2235.47860,N,11351.00360,E,29.16,317.73,110414,,,A*5B
$GPRMC,163811.00,A,2235.48460,N,11350.99700,E,29.16,312.27,110414,,,A*5B
$GPRMC,163812.00,A,2235.49120,N,11350.99040,E,30.78,315.00,110414,,,A*5B
$GPRMC,163813.00,A,2235.49780,N,11350.98380,E,30.78,315.00,110414,,,A*5B
$GPRMC,163814.00,A,2235.50440,N,11350.97720,E,30.78,315.00,110414,,,A*5B
$GPRMC,163815.00,A,2235.51160,N,11350.97060,E,32.94,317.49,110414,,,A*5B
$GPRMC,163816.00,A,2235.51880,N,11350.96400,E,32.94,317.49,110414,,,A*5B
$GPRMC,163817.00,A,2235.52540,N,11350.95680,E,32.94,312.51,110414,,,A*5B
$GPRMC,163818.00,A,2235.53320,N,11350.95020,E,34.56,319.76,110414,,,A*5B
$GPRMC,163819.00,A,2235.54040,N,11350.94360,E,32.94,317.49,110414,,,A*5B
$GPRMC,163820.00,A,2235.54820,N,11350.93640,E,36.72,317.29,110414,,,A*5B
$GPRMC,163821.00,A,2235.55540,N,11350.92980,E,32.94,317.49,110414,,,A*5B
$GPRMC,163822.00,A,2235.56260,N,11350.92260,E,34.56,315.00,110414,,,A*5B
$GPRMC,163823.00,A,2235.56980,N,11350.91600,E,32.94,317.49,110414,,,A*5B
$GPRMC,163824.00,A,2235.57700,N,11350.91000,E,30.78,320.19,110414,,,A*5B
$GPRMC,163825.00,A,2235.58360,N,11350.90340,E,30.78,315.00,110414,,,A*5B
$GPRMC,163826.00,A,2235.59020,N,11350.89740,E,29.16,317.73,110414,,,A*5B
$GPRMC,163827.00,A,2235.59740,N,11350.89200,E,30.78,323.13,110414,,,A*5B
$GPRMC,163828.00,A,2235.60460,N,11350.88600,E,30.78,320.19,110414,,,A*5B
$GPRMC,163829.00,A,2235.61120,N,11350.88000,E,29.16,317.73,110414,,,A*5B
$GPRMC,163830.00,A,2235.61840,N,11350.87400,E,30.78,320.19,110414,,,A*5B
$GPRMC,163831.00,A,2235.62560,N,11350.86740,E,32.94,317.49,110414,,,A*5B
$GPRMC,163832.00,A,2235.63280,N,11350.86200,E,30.78,323.13,110414,,,A*5B
$GPRMC,163833.00,A,2235.64060,N,11350.85540,E,34.56,319.76,110414,,,A*5B
$GPRMC,163834.00,A,2235.64840,N,11350.84940,E,32.94,322.43,110414,,,A*5B
$GPRMC,163835.00,A,2235.65620,N,11350.84280,E,34.56,319.76,110414,,,A*5B
$GPRMC,163836.00,A,2235.66460,N,11350.83680,E,34.56,324.46,110414,,,A*5B
$GPRMC,163837.00,A,2235.67300,N,11350.83020,E,36.72,321.84,110414,,,A*5B
$GPRMC,163838.00,A,2235.68140,N,11350.82420,E,34.56,324.46,110414,,,A*5B
$GPRMC,163839.00,A,2235.68980,N,11350.81820,E,34.56,324.46,110414,,,A*5B
$GPRMC,163840.00,A,2235.69820,N,11350.81220,E,34.56,324.46,110414,,,A*5B
$GPRMC,163841.00,A,2235.70660,N,11350.80620,E,34.56,324.46,110414,,,A*5B
$GPRMC,163842.00,A,2235.71440,N,11350.80020,E,32.94,322.43,110414,,,A*5B
$GPRMC,163843.00,A,2235.72280,N,11350.79480,E,34.56,327.26,110414,,,A*5B
$GPRMC,163844.00,A,2235.73060,N,11350.78940,E,32.94,325.30,110414,,,A*5B
$GPRMC,163845.00,A,2235.73900,N,11350.78400,E,34.56,327.26,110414,,,A*5B
$GPRMC,163846.00,A,2235.74680,N,11350.77860,E,32.94,325.30,110414,,,A*5B
$GPRMC,163847.00,A,2235.75460,N,11350.77320,E,32.94,325.30,110414,,,A*5B
$GPRMC,163848.00,A,2235.76300,N,11350.76840,E,32.94,330.26,110414,,,A*5B
$GPRMC,163849.00,A,2235.77080,N,11350.76360,E,30.78,328.39,110414,,,A*5B
$GPRMC,163850.00,A,2235.77800,N,11350.75820,E,30.78,323.13,110414,,,A*5B
$GPRMC,163851.00,A,2235.78580,N,11350.75340,E,30.78,328.39,110414,,,A*5B
$GPRMC,163852.00,A,2235.79360,N,11350.74920,E,30.78,331.70,110414,,,A*5B
$GPRMC,163853.00,A,2235.80140,N,11350.74440,E,30.78,328.39,110414,,,A*5B
$GPRMC,163854.00,A,2235.80920,N,11350.73960,E,30.78,328.39,110414,,,A*5B
$GPRMC,163855.00,A,2235.81700,N,11350.73540,E,30.78,331.70,110414,,,A*5B
$GPRMC,163856.00,A,2235.82540,N,11350.73060,E,32.94,330.26,110414,,,A*5B
$GPRMC,163857.00,A,2235.83320,N,11350.72580,E,30.78,328.39,110414,,,A*5B
$GPRMC,163858.00,A,2235.84160,N,11350.72160,E,32.94,333.43,110414,,,A*5B
$GPRMC,163859.00,A,2235.84940,N,11350.71680,E,30.78,328.39,110414,,,A*5B
$GPRMC,163900.00,A,2235.85720,N,11350.71260,E,30.78,331.70,110414,,,A*5B
$GPRMC,163901.00,A,2235.86440,N,11350.70900,E,27.00,333.43,110414,,,A*5B
$GPRMC,163902.00,A,2235.87220,N,11350.70480,E,30.78,331.70,110414,,,A*5B
$GPRMC,163903.00,A,2235.87940,N,11350.70120,E,27.00,333.43,110414,,,A*5B
$GPRMC,163904.00,A,2235.88660,N,11350.69700,E,29.16,329.74,110414,,,A*5B
$GPRMC,163905.00,A,2235.89380,N,11350.69340,E,27.00,333.43,110414,,,A*5B
$GPRMC,163906.00,A,2235.90100,N,11350.68980,E,27.00,333.43,110414,,,A*5B
$GPRMC,163907.00,A,2235.90760,N,11350.68620,E,24.84,331.39,110414,,,A*5B
$GPRMC,163908.00,A,2235.91480,N,11350.68320,E,27.00,337.38,110414,,,A*5B
$GPRMC,163909.00,A,2235.92140,N,11350.68020,E,24.84,335.56,110414,,,A*5B
$GPRMC,163910.00,A,2235.92740,N,11350.67720,E,23.22,333.43,110414,,,A*5B
$GPRMC,163911.00,A,2235.93340,N,11350.67420,E,23.22,333.43,110414,,,A*5B
$GPRMC,163912.00,A,2235.93940,N,11350.67120,E,23.22,333.43,110414,,,A*5B
$GPRMC,163913.00,A,2235.94540,N,11350.66820,E,23.22,333.43,110414,,,A*5B
$GPRMC,163914.00,A,2235.95080,N,11350.66520,E,21.06,330.95,110414,,,A*5B
$GPRMC,163915.00,A,2235.95620,N,11350.66280,E,19.44,336.04,110414,,,A*5B
$GPRMC,163916.00,A,2235.95980,N,11350.66160,E,11.34,341.57,110414,,,A*5B
$GPRMC,163917.00,A,2235.96280,N,11350.65980,E,11.34,329.04,110414,,,A*5B
$GPRMC,163918.00,A,2235.96520,N,11350.65860,E,7.56,333.43,110414,,,A*5B
$GPRMC,163919.00,A,2235.96700,N,11350.65800,E,5.40,341.57,110414,,,A*5B
$GPRMC,163920.00,A,2235.96880,N,11350.65740,E,5.40,341.57,110414,,,A*5B
$GPRMC,163921.00,A,2235.97000,N,11350.65620,E,5.40,315.00,110414,,,A*5B
$GPRMC,163922.00,A,2235.97060,N,11350.65620,E,1.62,360.00,110414,,,A*5B
$GPRMC,164015.00,A,2235.97240,N,11350.65260,E,1.62,270.00,110414,,,A*5B
$GPRMC,164016.00,A,2235.97360,N,11350.65200,E,3.78,333.43,110414,,,A*5B
$GPRMC,164017.00,A,2235.97540,N,11350.65080,E,5.40,326.31,110414,,,A*5B
$GPRMC,164018.00,A,2235.97780,N,11350.64960,E,7.56,333.43,110414,,,A*5B
$GPRMC,164019.00,A,2235.98080,N,11350.64780,E,11.34,329.04,110414,,,A*5B
$GPRMC,164020.00,A,2235.98440,N,11350.64600,E,13.50,333.43,110414,,,A*5B
$GPRMC,164021.00,A,2235.98860,N,11350.64420,E,15.12,336.80,110414,,,A*5B
$GPRMC,164022.00,A,2235.99280,N,11350.64240,E,15.12,336.80,110414,,,A*5B
$GPRMC,164023.00,A,2235.99760,N,11350.64060,E,17.28,339.44,110414,,,A*5B
$GPRMC,164024.00,A,2236.00300,N,11350.63880,E,19.44,341.57,110414,,,A*5B
$GPRMC,164025.00,A,2236.00840,N,11350.63640,E,19.44,336.04,110414,,,A*5B
$GPRMC,164026.00,A,2236.01440,N,11350.63400,E,21.06,338.20,110414,,,A*5B
$GPRMC,164027.00,A,2236.01980,N,11350.63160,E,19.44,336.04,110414,,,A*5B
$GPRMC,164028.00,A,2236.02580,N,11350.62920,E,21.06,338.20,110414,,,A*5B
$GPRMC,164029.00,A,2236.03180,N,11350.62620,E,23.22,333.43,110414,,,A*5B
$GPRMC,164030.00,A,2236.03840,N,11350.62380,E,23.22,340.02,110414,,,A*5B
$GPRMC,164031.00,A,2236.04500,N,11350.62080,E,24.84,335.56,110414,,,A*5B
$GPRMC,164032.00,A,2236.05220,N,11350.61780,E,27.00,337.38,110414,,,A*5B
$GPRMC,164033.00,A,2236.05940,N,11350.61480,E,27.00,337.38,110414,,,A*5B
$GPRMC,164034.00,A,2236.06660,N,11350.61180,E,27.00,337.38,110414,,,A*5B
$GPRMC,164035.00,A,2236.07380,N,11350.60820,E,27.00,333.43,110414,,,A*5B
$GPRMC,164036.00,A,2236.08040,N,11350.60460,E,24.84,331.39,110414,,,A*5B
$GPRMC,164037.00,A,2236.08700,N,11350.60100,E,24.84,331.39,110414,,,A*5B
$GPRMC,164038.00,A,2236.09360,N,11350.59680,E,27.00,327.53,110414,,,A*5B
$GPRMC,164039.00,A,2236.10020,N,11350.59320,E,24.84,331.39,110414,,,A*5B
$GPRMC,164040.00,A,2236.10680,N,11350.58960,E,24.84,331.39,110414,,,A*5B
$GPRMC,164041.00,A,2236.11340,N,11350.58600,E,24.84,331.39,110414,,,A*5B
$GPRMC,164042.00,A,2236.12000,N,11350.58240,E,24.84,331.39,110414,,,A*5B
$GPRMC,164043.00,A,2236.12600,N,11350.58000,E,21.06,338.20,110414,,,A*5B
$GPRMC,164044.00,A,2236.13200,N,11350.57700,E,23.22,333.43,110414,,,A*5B
$GPRMC,164045.00,A,2236.13800,N,11350.57460,E,21.06,338.20,110414,,,A*5B
$GPRMC,164046.00,A,2236.14340,N,11350.57220,E,19.44,336.04,110414,,,A*5B
$GPRMC,164047.00,A,2236.14880,N,11350.56920,E,21.06,330.95,110414,,,A*5B
$GPRMC,164048.00,A,2236.15420,N,11350.56680,E,19.44,336.04,110414,,,A*5B
$GPRMC,164049.00,A,2236.15900,N,11350.56440,E,17.28,333.43,110414,,,A*5B
$GPRMC,164050.00,A,2236.16380,N,11350.56200,E,17.28,333.43,110414,,,A*5B
$GPRMC,164051.00,A,2236.16860,N,11350.55960,E,17.28,333.43,110414,,,A*5B
$GPRMC,164052.00,A,2236.17280,N,11350.55780,E,15.12,336.80,110414,,,A*5B
$GPRMC,164053.00,A,2236.17700,N,11350.55600,E,15.12,336.80,110414,,,A*5B
$GPRMC,164054.00,A,2236.18000,N,11350.55480,E,9.72,338.20,110414,,,A*5B
$GPRMC,164055.00,A,2236.18300,N,11350.55420,E,9.72,348.69,110414,,,A*5B
$GPRMC,164056.00,A,2236.18540,N,11350.55300,E,7.56,333.43,110414,,,A*5B
$GPRMC,164057.00,A,2236.18720,N,11350.55180,E,5.40,326.31,110414,,,A*5B
$GPRMC,164058.00,A,2236.18960,N,11350.55060,E,7.56,333.43,110414,,,A*5B
$GPRMC,164059.00,A,2236.19200,N,11350.55000,E,7.56,345.96,110414,,,A*5B
$GPRMC,164100.00,A,2236.19500,N,11350.54880,E,9.72,338.20,110414,,,A*5B
$GPRMC,164101.00,A,2236.19800,N,11350.54700,E,11.34,329.04,110414,,,A*5B
$GPRMC,164102.00,A,2236.20160,N,11350.54520,E,13.50,333.43,110414,,,A*5B
$GPRMC,164103.00,A,2236.20520,N,11350.54340,E,13.50,333.43,110414,,,A*5B
$GPRMC,164104.00,A,2236.20940,N,11350.54100,E,15.12,330.26,110414,,,A*5B
$GPRMC,164105.00,A,2236.21360,N,11350.53920,E,15.12,336.80,110414,,,A*5B
$GPRMC,164106.00,A,2236.21840,N,11350.53740,E,17.28,339.44,110414,,,A*5B
$GPRMC,164107.00,A,2236.22260,N,11350.53560,E,15.12,336.80,110414,,,A*5B
$GPRMC,164108.00,A,2236.22680,N,11350.53380,E,15.12,336.80,110414,,,A*5B
$GPRMC,164109.00,A,2236.23160,N,11350.53140,E,17.28,333.43,110414,,,A*5B
$GPRMC,164110.00,A,2236.23580,N,11350.52960,E,15.12,336.80,110414,,,A*5B
$GPRMC,164111.00,A,2236.24060,N,11350.52720,E,17.28,333.43,110414,,,A*5B
$GPRMC,164112.00,A,2236.24540,N,11350.52480,E,17.28,333.43,110414,,,A*5B
$GPRMC,164113.00,A,2236.25020,N,11350.52240,E,17.28,333.43,110414,,,A*5B
$GPRMC,164114.00,A,2236.25500,N,11350.51940,E,19.44,327.99,110414,,,A*5B
$GPRMC,164115.00,A,2236.25980,N,11350.51700,E,17.28,333.43,110414,,,A*5B
$GPRMC,164116.00,A,2236.26460,N,11350.51520,E,17.28,339.44,110414,,,A*5B
$GPRMC,164117.00,A,2236.26880,N,11350.51340,E,15.12,336.80,110414,,,A*5B
$GPRMC,164118.00,A,2236.27300,N,11350.51100,E,15.12,330.26,110414,,,A*5B
$GPRMC,164119.00,A,2236.27720,N,11350.50920,E,15.12,336.80,110414,,,A*5B
$GPRMC,164120.00,A,2236.28140,N,11350.50740,E,15.12,336.80,110414,,,A*5B
$GPRMC,164121.00,A,2236.28560,N,11350.50560,E,15.12,336.80,110414,,,A*5B
$GPRMC,164122.00,A,2236.29040,N,11350.50320,E,17.28,333.43,110414,,,A*5B
$GPRMC,164123.00,A,2236.29460,N,11350.50140,E,15.12,336.80,110414,,,A*5B
$GPRMC,164124.00,A,2236.29880,N,11350.49900,E,15.12,330.26,110414,,,A*5B
$GPRMC,164125.00,A,2236.30300,N,11350.49720,E,15.12,336.80,110414,,,A*5B
$GPRMC,164126.00,A,2236.30720,N,11350.49540,E,15.12,336.80,110414,,,A*5B
$GPRMC,164127.00,A,2236.31080,N,11350.49360,E,13.50,333.43,110414,,,A*5B
$GPRMC,164128.00,A,2236.31440,N,11350.49180,E,13.50,333.43,110414,,,A*5B
$GPRMC,164129.00,A,2236.31800,N,11350.49000,E,13.50,333.43,110414,,,A*5B
$GPRMC,164130.00,A,2236.32160,N,11350.49000,E,11.34,360.00,110414,,,A*5B
$GPRMC,164131.00,A,2236.32460,N,11350.49060,E,9.72,11.31,110414,,,A*5B
$GPRMC,164132.00,A,2236.32700,N,11350.49240,E,9.72,36.87,110414,,,A*5B
$GPRMC,164133.00,A,2236.32880,N,11350.49420,E,7.56,45.00,110414,,,A*5B
$GPRMC,164134.00,A,2236.33060,N,11350.49720,E,11.34,59.04,110414,,,A*5B
$GPRMC,164135.00,A,2236.33240,N,11350.49960,E,9.72,53.13,110414,,,A*5B
$GPRMC,164136.00,A,2236.33360,N,11350.50260,E,9.72,68.20,110414,,,A*5B
$GPRMC,164137.00,A,2236.33480,N,11350.50620,E,11.34,71.57,110414,,,A*5B
$GPRMC,164138.00,A,2236.33540,N,11350.50980,E,11.34,80.54,110414,,,A*5B
$GPRMC,164139.00,A,2236.33720,N,11350.51340,E,13.50,63.43,110414,,,A*5B
$GPRMC,164140.00,A,2236.33840,N,11350.51760,E,13.50,74.05,110414,,,A*5B
$GPRMC,164141.00,A,2236.33960,N,11350.52180,E,13.50,74.05,110414,,,A*5B
$GPRMC,164142.00,A,2236.34140,N,11350.52660,E,15.12,69.44,110414,,,A*5B
$GPRMC,164143.00,A,2236.34320,N,11350.53080,E,13.50,66.80,110414,,,A*5B
$GPRMC,164144.00,A,2236.34500,N,11350.53560,E,15.12,69.44,110414,,,A*5B
$GPRMC,164145.00,A,2236.34680,N,11350.54040,E,15.12,69.44,110414,,,A*5B
$GPRMC,164146.00,A,2236.34920,N,11350.54460,E,15.12,60.26,110414,,,A*5B
$GPRMC,164147.00,A,2236.35100,N,11350.54880,E,13.50,66.80,110414,,,A*5B
$GPRMC,164148.00,A,2236.35220,N,11350.55300,E,13.50,74.05,110414,,,A*5B
$GPRMC,164149.00,A,2236.35280,N,11350.55600,E,9.72,78.69,110414,,,A*5B
$GPRMC,164150.00,A,2236.35280,N,11350.55780,E,5.40,90.00,110414,,,A*5B
$GPRMC,164151.00,A,2236.34920,N,11350.55960,E,13.50,153.43,110414,,,A*5B
$GPRMC,164152.00,A,2236.34740,N,11350.56140,E,7.56,135.00,110414,,,A*5B
$GPRMC,164153.00,A,2236.34620,N,11350.56140,E,3.78,180.00,110414,,,A*5B
$GPRMC,164154.00,A,2236.34500,N,11350.56200,E,3.78,153.43,110414,,,A*5B
$GPRMC,164155.00,A,2236.34440,N,11350.56440,E,7.56,104.04,110414,,,A*5B
$GPRMC,164156.00,A,2236.34200,N,11350.56440,E,7.56,180.00,110414,,,A*5B
$GPRMC,164157.00,A,2236.34080,N,11350.56560,E,5.40,135.00,110414,,,A*5B
$GPRMC,164158.00,A,2236.33900,N,11350.56620,E,5.40,161.57,110414,,,A*5B
$GPRMC,164159.00,A,2236.33780,N,11350.56620,E,3.78,180.00,110414,,,A*5B
$GPRMC,164200.00,A,2236.33600,N,11350.56620,E,5.40,180.00,110414,,,A*5B
$GPRMC,164201.00,A,2236.33420,N,11350.56680,E,5.40,161.57,110414,,,A*5B
$GPRMC,164202.00,A,2236.33240,N,11350.56800,E,5.40,146.31,110414,,,A*5B
$GPRMC,164203.00,A,2236.33000,N,11350.56860,E,7.56,165.96,110414,,,A*5B
$GPRMC,164204.00,A,2236.32820,N,11350.56980,E,5.40,146.31,110414,,,A*5B
$GPRMC,164205.00,A,2236.32700,N,11350.57040,E,3.78,153.43,110414,,,A*5B
$GPRMC,164206.00,A,2236.32640,N,11350.57220,E,5.40,108.43,110414,,,A*5B
$GPRMC,164207.00,A,2236.32580,N,11350.57460,E,7.56,104.04,110414,,,A*5B
$GPRMC,164208.00,A,2236.32580,N,11350.57700,E,7.56,90.00,110414,,,A*5B
$GPRMC,164209.00,A,2236.32580,N,11350.57880,E,5.40,90.00,110414,,,A*5B
$GPRMC,164210.00,A,2236.32580,N,11350.58060,E,5.40,90.00,110414,,,A*5B
$GPRMC,164211.00,A,2236.32640,N,11350.58180,E,3.78,63.43,110414,,,A*5B
$GPRMC,164212.00,A,2236.32700,N,11350.58300,E,3.78,63.43,110414,,,A*5B
$GPRMC,164213.00,A,2236.32700,N,11350.58420,E,3.78,90.00,110414,,,A*5B
$GPRMC,164214.00,A,2236.32760,N,11350.58540,E,3.78,63.43,110414,,,A*5B
$GPRMC,164215.00,A,2236.32760,N,11350.58660,E,3.78,90.00,110414,,,A*5B
$GPRMC,164217.00,A,2236.32700,N,11350.58780,E,3.78,116.57,110414,,,A*5B
$GPRMC,164218.00,A,2236.32760,N,11350.58840,E,1.62,45.00,110414,,,A*5B
$GPRMC,164219.00,A,2236.32760,N,11350.58960,E,3.78,90.00,110414,,,A*5B
$GPRMC,164220.00,A,2236.32760,N,11350.59020,E,1.62,90.00,110414,,,A*5B
$GPRMC,164221.00,A,2236.32700,N,11350.59080,E,1.62,135.00,110414,,,A*5B
$GPRMC,164222.00,A,2236.32640,N,11350.59140,E,1.62,135.00,110414,,,A*5B
$GPRMC,164223.00,A,2236.32580,N,11350.59200,E,1.62,135.00,110414,,,A*5B
$GPRMC,013429.00,A,2236.33360,N,11350.55780,E,1.62,270.00,120414,,,A*5B
$GPRMC,013430.00,A,2236.33300,N,11350.55660,E,3.78,243.43,120414,,,A*5B
$GPRMC,013431.00,A,2236.33180,N,11350.55480,E,5.40,236.31,120414,,,A*5B
$GPRMC,013432.00,A,2236.33180,N,11350.55300,E,5.40,270.00,120414,,,A*5B
$GPRMC,013433.00,A,2236.33060,N,11350.55000,E,9.72,248.20,120414,,,A*5B
$GPRMC,013434.00,A,2236.32940,N,11350.54640,E,11.34,251.57,120414,,,A*5B
$GPRMC,013435.00,A,2236.32880,N,11350.54340,E,9.72,258.69,120414,,,A*5B
$GPRMC,013436.00,A,2236.32880,N,11350.53920,E,13.50,270.00,120414,,,A*5B
$GPRMC,013437.00,A,2236.32880,N,11350.53560,E,11.34,270.00,120414,,,A*5B
$GPRMC,013438.00,A,2236.33300,N,11350.53200,E,17.28,319.40,120414,,,A*5B
$GPRMC,013439.00,A,2236.33540,N,11350.52840,E,13.50,303.69,120414,,,A*5B
$GPRMC,013440.00,A,2236.34020,N,11350.52660,E,17.28,339.44,120414,,,A*5B
$GPRMC,013441.00,A,2236.34140,N,11350.52660,E,3.78,360.00,120414,,,A*5B
$GPRMC,013442.00,A,2236.33840,N,11350.52480,E,11.34,210.96,120414,,,A*5B
$GPRMC,013444.00,A,2236.33960,N,11350.51460,E,9.18,270.90,120414,,,A*5B
$GPRMC,013445.00,A,2236.33660,N,11350.51040,E,17.28,234.46,120414,,,A*5B
$GPRMC,013447.00,A,2236.33120,N,11350.50560,E,1.62,266.29,120414,,,A*5B
$GPRMC,013448.00,A,2236.32880,N,11350.50260,E,11.34,231.34,120414,,,A*5B
$GPRMC,013449.00,A,2236.32700,N,11350.49960,E,11.34,239.04,120414,,,A*5B
$GPRMC,013450.00,A,2236.32700,N,11350.49720,E,7.56,270.00,120414,,,A*5B
$GPRMC,013451.00,A,2236.32940,N,11350.49540,E,9.72,323.13,120414,,,A*5B
$GPRMC,013452.00,A,2236.33240,N,11350.49360,E,11.34,329.04,120414,,,A*5B
$GPRMC,013453.00,A,2236.33540,N,11350.49180,E,11.34,329.04,120414,,,A*5B
$GPRMC,013454.00,A,2236.33840,N,11350.48940,E,11.34,321.34,120414,,,A*5B
$GPRMC,013455.00,A,2236.34200,N,11350.48760,E,13.50,333.43,120414,,,A*5B
$GPRMC,013456.00,A,2236.34560,N,11350.48520,E,13.50,326.31,120414,,,A*5B
$GPRMC,013457.00,A,2236.34860,N,11350.48340,E,11.34,329.04,120414,,,A*5B
$GPRMC,013458.00,A,2236.35160,N,11350.48220,E,9.72,338.20,120414,,,A*5B
$GPRMC,013459.00,A,2236.35400,N,11350.48100,E,7.56,333.43,120414,,,A*5B
$GPRMC,013500.00,A,2236.35580,N,11350.47980,E,5.40,326.31,120414,,,A*5B
$GPRMC,013501.00,A,2236.35820,N,11350.47860,E,7.56,333.43,120414,,,A*5B
$GPRMC,013502.00,A,2236.35940,N,11350.47800,E,3.78,333.43,120414,,,A*5B
$GPRMC,013503.00,A,2236.36060,N,11350.47680,E,5.40,315.00,120414,,,A*5B
$GPRMC,013504.00,A,2236.36240,N,11350.47620,E,5.40,341.57,120414,,,A*5B
$GPRMC,013505.00,A,2236.36360,N,11350.47500,E,5.40,315.00,120414,,,A*5B
$GPRMC,013506.00,A,2236.36480,N,11350.47440,E,3.78,333.43,120414,,,A*5B
$GPRMC,013507.00,A,2236.36540,N,11350.47380,E,1.62,315.00,120414,,,A*5B
$GPRMC,013508.00,A,2236.36600,N,11350.47320,E,1.62,315.00,120414,,,A*5B
$GPRMC,013509.00,A,2236.36660,N,11350.47260,E,1.62,315.00,120414,,,A*5B
$GPRMC,013515.00,A,2236.36780,N,11350.47080,E,1.62,270.00,120414,,,A*5B
$GPRMC,013601.00,A,2236.37320,N,11350.47260,E,1.62,307.83,120414,,,A*5B
$GPRMC,013602.00,A,2236.37380,N,11350.47200,E,1.62,315.00,120414,,,A*5B
$GPRMC,013603.00,A,2236.37440,N,11350.47140,E,1.62,315.00,120414,,,A*5B
$GPRMC,013604.00,A,2236.37500,N,11350.47080,E,1.62,315.00,120414,,,A*5B
$GPRMC,013605.00,A,2236.37620,N,11350.46960,E,5.40,315.00,120414,,,A*5B
$GPRMC,013606.00,A,2236.37740,N,11350.46840,E,5.40,315.00,120414,,,A*5B
$GPRMC,013607.00,A,2236.37860,N,11350.46720,E,5.40,315.00,120414,,,A*5B
$GPRMC,013608.00,A,2236.38100,N,11350.46600,E,7.56,333.43,120414,,,A*5B
$GPRMC,013609.00,A,2236.38340,N,11350.46480,E,7.56,333.43,120414,,,A*5B
$GPRMC,013610.00,A,2236.38640,N,11350.46360,E,9.72,338.20,120414,,,A*5B
$GPRMC,013611.00,A,2236.38880,N,11350.46180,E,9.72,323.13,120414,,,A*5B
$GPRMC,013612.00,A,2236.39120,N,11350.46060,E,7.56,333.43,120414,,,A*5B
$GPRMC,013613.00,A,2236.39420,N,11350.45880,E,11.34,329.04,120414,,,A*5B
$GPRMC,013614.00,A,2236.39720,N,11350.45760,E,9.72,338.20,120414,,,A*5B
$GPRMC,013615.00,A,2236.39960,N,11350.45580,E,9.72,323.13,120414,,,A*5B
$GPRMC,013616.00,A,2236.40260,N,11350.45400,E,11.34,329.04,120414,,,A*5B
$GPRMC,013617.00,A,2236.40500,N,11350.45280,E,7.56,333.43,120414,,,A*5B
$GPRMC,013618.00,A,2236.40740,N,11350.45100,E,9.72,323.13,120414,,,A*5B
$GPRMC,013619.00,A,2236.41040,N,11350.44980,E,9.72,338.20,120414,,,A*5B
$GPRMC,013620.00,A,2236.41340,N,11350.44860,E,9.72,338.20,120414,,,A*5B
$GPRMC,013621.00,A,2236.41640,N,11350.44800,E,9.72,348.69,120414,,,A*5B
$GPRMC,013622.00,A,2236.41940,N,11350.44740,E,9.72,348.69,120414,,,A*5B
$GPRMC,013623.00,A,2236.42240,N,11350.44800,E,9.72,11.31,120414,,,A*5B
$GPRMC,013624.00,A,2236.42600,N,11350.44980,E,13.50,26.57,120414,,,A*5B
$GPRMC,013625.00,A,2236.42960,N,11350.45280,E,15.12,39.81,120414,,,A*5B
$GPRMC,013626.00,A,2236.43260,N,11350.45640,E,15.12,50.19,120414,,,A*5B
$GPRMC,013627.00,A,2236.43500,N,11350.46060,E,15.12,60.26,120414,,,A*5B
$GPRMC,013628.00,A,2236.43740,N,11350.46600,E,19.44,66.04,120414,,,A*5B
$GPRMC,013629.00,A,2236.43980,N,11350.47140,E,19.44,66.04,120414,,,A*5B
$GPRMC,013630.00,A,2236.44220,N,11350.47680,E,19.44,66.04,120414,,,A*5B
$GPRMC,013631.00,A,2236.44520,N,11350.48280,E,21.06,63.43,120414,,,A*5B
$GPRMC,013632.00,A,2236.44760,N,11350.48880,E,21.06,68.20,120414,,,A*5B
$GPRMC,013633.00,A,2236.45120,N,11350.49540,E,24.84,61.39,120414,,,A*5B
$GPRMC,013634.00,A,2236.45420,N,11350.50260,E,24.84,67.38,120414,,,A*5B
$GPRMC,013635.00,A,2236.45720,N,11350.51040,E,27.00,68.96,120414,,,A*5B
$GPRMC,013636.00,A,2236.46080,N,11350.51760,E,27.00,63.43,120414,,,A*5B
$GPRMC,013637.00,A,2236.46380,N,11350.52540,E,27.00,68.96,120414,,,A*5B
$GPRMC,013638.00,A,2236.46740,N,11350.53380,E,29.16,66.80,120414,,,A*5B
$GPRMC,013639.00,A,2236.47100,N,11350.54220,E,29.16,66.80,120414,,,A*5B
$GPRMC,013640.00,A,2236.47460,N,11350.55060,E,29.16,66.80,120414,,,A*5B
$GPRMC,013641.00,A,2236.47760,N,11350.55960,E,30.78,71.57,120414,,,A*5B
$GPRMC,013642.00,A,2236.48120,N,11350.56800,E,29.16,66.80,120414,,,A*5B
$GPRMC,013643.00,A,2236.48420,N,11350.57580,E,27.00,68.96,120414,,,A*5B
$GPRMC,013644.00,A,2236.48720,N,11350.58420,E,29.16,70.35,120414,,,A*5B
$GPRMC,013645.00,A,2236.49020,N,11350.59140,E,24.84,67.38,120414,,,A*5B
$GPRMC,013646.00,A,2236.49320,N,11350.59860,E,24.84,67.38,120414,,,A*5B
$GPRMC,013647.00,A,2236.49620,N,11350.60640,E,27.00,68.96,120414,,,A*5B
$GPRMC,013648.00,A,2236.49920,N,11350.61420,E,27.00,68.96,120414,,,A*5B
$GPRMC,013649.00,A,2236.50220,N,11350.62260,E,29.16,70.35,120414,,,A*5B
$GPRMC,013650.00,A,2236.50520,N,11350.63100,E,29.16,70.35,120414,,,A*5B
$GPRMC,013651.00,A,2236.50880,N,11350.63940,E,29.16,66.80,120414,,,A*5B
$GPRMC,013652.00,A,2236.51240,N,11350.64780,E,29.16,66.80,120414,,,A*5B
$GPRMC,013653.00,A,2236.51600,N,11350.65620,E,29.16,66.80,120414,,,A*5B
$GPRMC,013654.00,A,2236.51960,N,11350.66400,E,27.00,65.22,120414,,,A*5B
$GPRMC,013655.00,A,2236.52260,N,11350.67180,E,27.00,68.96,120414,,,A*5B
$GPRMC,013656.00,A,2236.52620,N,11350.67960,E,27.00,65.22,120414,,,A*5B
$GPRMC,013657.00,A,2236.52980,N,11350.68740,E,27.00,65.22,120414,,,A*5B
$GPRMC,013658.00,A,2236.53340,N,11350.69580,E,29.16,66.80,120414,,,A*5B
$GPRMC,013659.00,A,2236.53640,N,11350.70360,E,27.00,68.96,120414,,,A*5B
$GPRMC,013700.00,A,2236.54000,N,11350.71140,E,27.00,65.22,120414,,,A*5B
$GPRMC,013701.00,A,2236.54300,N,11350.71860,E,24.84,67.38,120414,,,A*5B
$GPRMC,013702.00,A,2236.54540,N,11350.72520,E,23.22,70.02,120414,,,A*5B
$GPRMC,013703.00,A,2236.54780,N,11350.73120,E,21.06,68.20,120414,,,A*5B
$GPRMC,013704.00,A,2236.54960,N,11350.73720,E,19.44,73.30,120414,,,A*5B
$GPRMC,013705.00,A,2236.55140,N,11350.74200,E,15.12,69.44,120414,,,A*5B
$GPRMC,013706.00,A,2236.55320,N,11350.74680,E,15.12,69.44,120414,,,A*5B
$GPRMC,013707.00,A,2236.55440,N,11350.75100,E,13.50,74.05,120414,,,A*5B
$GPRMC,013708.00,A,2236.55560,N,11350.75460,E,11.34,71.57,120414,,,A*5B
$GPRMC,013709.00,A,2236.55680,N,11350.75760,E,9.72,68.20,120414,,,A*5B
$GPRMC,013710.00,A,2236.55800,N,11350.76000,E,7.56,63.43,120414,,,A*5B
$GPRMC,013711.00,A,2236.55800,N,11350.76120,E,3.78,90.00,120414,,,A*5B
$GPRMC,013712.00,A,2236.55860,N,11350.76240,E,3.78,63.43,120414,,,A*5B
$GPRMC,013724.00,A,2236.55920,N,11350.76300,E,2.70,66.43,120414,,,A*5B
$GPRMC,013725.00,A,2236.56040,N,11350.76420,E,5.40,45.00,120414,,,A*5B
$GPRMC,013726.00,A,2236.56100,N,11350.76600,E,5.40,71.57,120414,,,A*5B
$GPRMC,013727.00,A,2236.56220,N,11350.76840,E,7.56,63.43,120414,,,A*5B
$GPRMC,013728.00,A,2236.56340,N,11350.77080,E,7.56,63.43,120414,,,A*5B
$GPRMC,013729.00,A,2236.56460,N,11350.77440,E,11.34,71.57,120414,,,A*5B
$GPRMC,013730.00,A,2236.56580,N,11350.77740,E,9.72,68.20,120414,,,A*5B
$GPRMC,013731.00,A,2236.56640,N,11350.78040,E,9.72,78.69,120414,,,A*5B
$GPRMC,013732.00,A,2236.56760,N,11350.78340,E,9.72,68.20,120414,,,A*5B
$GPRMC,013733.00,A,2236.56820,N,11350.78460,E,3.78,63.43,120414,,,A*5B
$GPRMC,013734.00,A,2236.56820,N,11350.78580,E,3.78,90.00,120414,,,A*5B
$GPRMC,013804.00,A,2236.56880,N,11350.78760,E,3.78,74.90,120414,,,A*5B
$GPRMC,013805.00,A,2236.56940,N,11350.78940,E,5.40,71.57,120414,,,A*5B
$GPRMC,013806.00,A,2236.56940,N,11350.79120,E,5.40,90.00,120414,,,A*5B
$GPRMC,013807.00,A,2236.57000,N,11350.79300,E,5.40,71.57,120414,,,A*5B
$GPRMC,013808.00,A,2236.57000,N,11350.79540,E,7.56,90.00,120414,,,A*5B
$GPRMC,013809.00,A,2236.56820,N,11350.79780,E,9.72,126.87,120414,,,A*5B
$GPRMC,013810.00,A,2236.56580,N,11350.79960,E,9.72,143.13,120414,,,A*5B
$GPRMC,013811.00,A,2236.56280,N,11350.80200,E,11.34,141.34,120414,,,A*5B
$GPRMC,013812.00,A,2236.55980,N,11350.80380,E,11.34,149.04,120414,,,A*5B
$GPRMC,013813.00,A,2236.55680,N,11350.80500,E,9.72,158.20,120414,,,A*5B
$GPRMC,013814.00,A,2236.55560,N,11350.80620,E,5.40,135.00,120414,,,A*5B
$GPRMC,013815.00,A,2236.55440,N,11350.80680,E,3.78,153.43,120414,,,A*5B
$GPRMC,013816.00,A,2236.55380,N,11350.80680,E,1.62,180.00,120414,,,A*5B
$GPRMC,013817.00,A,2236.55320,N,11350.80740,E,1.62,135.00,120414,,,A*5B
$GPRMC,013818.00,A,2236.55200,N,11350.80800,E,3.78,153.43,120414,,,A*5B
$GPRMC,013819.00,A,2236.55140,N,11350.80920,E,3.78,116.57,120414,,,A*5B
$GPRMC,013820.00,A,2236.55020,N,11350.81040,E,5.40,135.00,120414,,,A*5B
$GPRMC,013821.00,A,2236.54840,N,11350.81160,E,5.40,146.31,120414,,,A*5B
$GPRMC,013822.00,A,2236.54720,N,11350.81340,E,5.40,123.69,120414,,,A*5B
$GPRMC,013823.00,A,2236.54480,N,11350.81460,E,7.56,153.43,120414,,,A*5B
$GPRMC,013824.00,A,2236.54240,N,11350.81580,E,7.56,153.43,120414,,,A*5B
$GPRMC,013825.00,A,2236.53880,N,11350.81700,E,11.34,161.57,120414,,,A*5B
$GPRMC,013826.00,A,2236.53580,N,11350.81880,E,11.34,149.04,120414,,,A*5B
$GPRMC,013827.00,A,2236.53220,N,11350.82060,E,13.50,153.43,120414,,,A*5B
$GPRMC,013828.00,A,2236.52740,N,11350.82240,E,17.28,159.44,120414,,,A*5B
$GPRMC,013829.00,A,2236.52320,N,11350.82420,E,15.12,156.80,120414,,,A*5B
$GPRMC,013830.00,A,2236.51780,N,11350.82660,E,19.44,156.04,120414,,,A*5B
$GPRMC,013831.00,A,2236.51240,N,11350.82900,E,19.44,156.04,120414,,,A*5B
$GPRMC,013832.00,A,2236.50700,N,11350.83200,E,21.06,150.95,120414,,,A*5B
$GPRMC,013833.00,A,2236.50100,N,11350.83440,E,21.06,158.20,120414,,,A*5B
$GPRMC,013834.00,A,2236.49560,N,11350.83680,E,19.44,156.04,120414,,,A*5B
$GPRMC,013835.00,A,2236.49020,N,11350.83920,E,19.44,156.04,120414,,,A*5B
$GPRMC,013836.00,A,2236.48480,N,11350.84220,E,21.06,150.95,120414,,,A*5B
$GPRMC,013837.00,A,2236.48000,N,11350.84400,E,17.28,159.44,120414,,,A*5B
$GPRMC,013838.00,A,2236.47640,N,11350.84580,E,13.50,153.43,120414,,,A*5B
$GPRMC,013839.00,A,2236.47280,N,11350.84760,E,13.50,153.43,120414,,,A*5B
$GPRMC,013840.00,A,2236.46980,N,11350.84880,E,9.72,158.20,120414,,,A*5B
$GPRMC,013841.00,A,2236.46740,N,11350.85000,E,7.56,153.43,120414,,,A*5B
$GPRMC,013842.00,A,2236.46440,N,11350.85120,E,9.72,158.20,120414,,,A*5B
$GPRMC,013843.00,A,2236.46140,N,11350.85300,E,11.34,149.04,120414,,,A*5B
$GPRMC,013844.00,A,2236.45780,N,11350.85420,E,11.34,161.57,120414,,,A*5B
$GPRMC,013845.00,A,2236.45420,N,11350.85600,E,13.50,153.43,120414,,,A*5B
$GPRMC,013846.00,A,2236.45060,N,11350.85780,E,13.50,153.43,120414,,,A*5B
$GPRMC,013847.00,A,2236.44640,N,11350.86020,E,15.12,150.26,120414,,,A*5B
$GPRMC,013848.00,A,2236.44220,N,11350.86200,E,15.12,156.80,120414,,,A*5B
$GPRMC,013849.00,A,2236.43740,N,11350.86440,E,17.28,153.43,120414,,,A*5B
$GPRMC,013850.00,A,2236.43260,N,11350.86620,E,17.28,159.44,120414,,,A*5B
$GPRMC,013851.00,A,2236.42840,N,11350.86860,E,15.12,150.26,120414,,,A*5B
$GPRMC,013852.00,A,2236.42360,N,11350.87040,E,17.28,159.44,120414,,,A*5B
$GPRMC,013853.00,A,2236.41940,N,11350.87220,E,15.12,156.80,120414,,,A*5B
$GPRMC,013854.00,A,2236.41580,N,11350.87400,E,13.50,153.43,120414,,,A*5B
$GPRMC,013855.00,A,2236.41280,N,11350.87580,E,11.34,149.04,120414,,,A*5B
$GPRMC,013856.00,A,2236.40980,N,11350.87700,E,9.72,158.20,120414,,,A*5B
$GPRMC,013857.00,A,2236.40680,N,11350.87880,E,11.34,149.04,120414,,,A*5B
$GPRMC,013858.00,A,2236.40440,N,11350.88000,E,7.56,153.43,120414,,,A*5B
$GPRMC,013859.00,A,2236.40260,N,11350.88060,E,5.40,161.57,120414,,,A*5B
$GPRMC,013900.00,A,2236.40080,N,11350.88180,E,5.40,146.31,120414,,,A*5B
$GPRMC,013901.00,A,2236.39960,N,11350.88240,E,3.78,153.43,120414,,,A*5B
$GPRMC,013902.00,A,2236.39840,N,11350.88300,E,3.78,153.43,120414,,,A*5B
$GPRMC,013903.00,A,2236.39780,N,11350.88300,E,1.62,180.00,120414,,,A*5B
$GPRMC,013908.00,A,2236.39660,N,11350.88360,E,1.62,180.00,120414,,,A*5B
$GPRMC,013909.00,A,2236.39540,N,11350.88420,E,3.78,153.43,120414,,,A*5B
$GPRMC,013910.00,A,2236.39480,N,11350.88480,E,1.62,135.00,120414,,,A*5B
$GPRMC,013911.00,A,2236.39360,N,11350.88480,E,3.78,180.00,120414,,,A*5B
$GPRMC,013912.00,A,2236.39300,N,11350.88540,E,1.62,135.00,120414,,,A*5B
$GPRMC,013923.00,A,2236.39000,N,11350.88660,E,3.24,160.17,120414,,,A*5B
$GPRMC,013924.00,A,2236.38880,N,11350.88720,E,3.78,153.43,120414,,,A*5B
$GPRMC,013925.00,A,2236.38760,N,11350.88780,E,3.78,153.43,120414,,,A*5B
$GPRMC,013926.00,A,2236.38700,N,11350.88840,E,1.62,135.00,120414,,,A*5B
$GPRMC,013927.00,A,2236.38640,N,11350.88840,E,1.62,180.00,120414,,,A*5B
$GPRMC,013935.00,A,2236.38460,N,11350.88900,E,2.70,161.66,120414,,,A*5B
$GPRMC,013936.00,A,2236.38340,N,11350.88960,E,3.78,153.43,120414,,,A*5B
$GPRMC,013937.00,A,2236.38220,N,11350.89020,E,3.78,153.43,120414,,,A*5B
$GPRMC,013938.00,A,2236.38100,N,11350.89080,E,3.78,153.43,120414,,,A*5B
$GPRMC,013939.00,A,2236.37980,N,11350.89080,E,3.78,180.00,120414,,,A*5B
$GPRMC,013940.00,A,2236.37860,N,11350.89140,E,3.78,153.43,120414,,,A*5B
$GPRMC,013941.00,A,2236.37740,N,11350.89200,E,3.78,153.43,120414,,,A*5B
$GPRMC,013942.00,A,2236.37620,N,11350.89200,E,3.78,180.00,120414,,,A*5B
$GPRMC,013943.00,A,2236.37500,N,11350.89260,E,3.78,153.43,120414,,,A*5B
$GPRMC,013944.00,A,2236.37440,N,11350.89320,E,1.62,135.00,120414,,,A*5B
$GPRMC,013945.00,A,2236.37320,N,11350.89380,E,3.78,153.43,120414,,,A*5B
$GPRMC,013946.00,A,2236.37200,N,11350.89440,E,3.78,153.43,120414,,,A*5B
$GPRMC,013947.00,A,2236.37020,N,11350.89440,E,5.40,180.00,120414,,,A*5B
$GPRMC,013948.00,A,2236.36900,N,11350.89560,E,5.40,135.00,120414,,,A*5B
$GPRMC,013949.00,A,2236.36720,N,11350.89620,E,5.40,161.57,120414,,,A*5B
$GPRMC,013950.00,A,2236.36600,N,11350.89680,E,3.78,153.43,120414,,,A*5B
$GPRMC,013951.00,A,2236.36480,N,11350.89740,E,3.78,153.43,120414,,,A*5B
$GPRMC,013952.00,A,2236.36360,N,11350.89800,E,3.78,153.43,120414,,,A*5B
$GPRMC,013953.00,A,2236.36240,N,11350.89860,E,3.78,153.43,120414,,,A*5B
$GPRMC,013954.00,A,2236.36120,N,11350.89920,E,3.78,153.43,120414,,,A*5B
$GPRMC,013955.00,A,2236.35940,N,11350.89980,E,5.40,161.57,120414,,,A*5B
$GPRMC,013956.00,A,2236.35820,N,11350.90040,E,3.78,153.43,120414,,,A*5B
$GPRMC,013957.00,A,2236.35640,N,11350.90100,E,5.40,161.57,120414,,,A*5B
$GPRMC,013958.00,A,2236.35460,N,11350.90160,E,5.40,161.57,120414,,,A*5B
$GPRMC,013959.00,A,2236.35280,N,11350.90280,E,5.40,146.31,120414,,,A*5B
$GPRMC,014000.00,A,2236.35040,N,11350.90340,E,7.56,165.96,120414,,,A*5B
$GPRMC,014001.00,A,2236.34800,N,11350.90460,E,7.56,153.43,120414,,,A*5B
$GPRMC,014002.00,A,2236.34620,N,11350.90580,E,5.40,146.31,120414,,,A*5B
$GPRMC,014003.00,A,2236.34380,N,11350.90640,E,7.56,165.96,120414,,,A*5B
$GPRMC,014004.00,A,2236.34140,N,11350.90760,E,7.56,153.43,120414,,,A*5B
$GPRMC,014005.00,A,2236.33960,N,11350.90820,E,5.40,161.57,120414,,,A*5B
$GPRMC,014006.00,A,2236.33660,N,11350.90940,E,9.72,158.20,120414,,,A*5B
$GPRMC,014007.00,A,2236.33420,N,11350.91060,E,7.56,153.43,120414,,,A*5B
$GPRMC,014008.00,A,2236.33120,N,11350.91240,E,11.34,149.04,120414,,,A*5B
$GPRMC,014009.00,A,2236.32820,N,11350.91360,E,9.72,158.20,120414,,,A*5B
$GPRMC,014010.00,A,2236.32580,N,11350.91480,E,7.56,153.43,120414,,,A*5B
$GPRMC,014011.00,A,2236.32340,N,11350.91600,E,7.56,153.43,120414,,,A*5B
$GPRMC,014012.00,A,2236.32160,N,11350.91660,E,5.40,161.57,120414,,,A*5B
$GPRMC,014013.00,A,2236.31920,N,11350.91780,E,7.56,153.43,120414,,,A*5B
$GPRMC,014014.00,A,2236.31740,N,11350.91900,E,5.40,146.31,120414,,,A*5B
$GPRMC,014015.00,A,2236.31500,N,11350.92020,E,7.56,153.43,120414,,,A*5B
$GPRMC,014016.00,A,2236.31320,N,11350.92080,E,5.40,161.57,120414,,,A*5B
$GPRMC,014017.00,A,2236.31080,N,11350.92260,E,9.72,143.13,120414,,,A*5B
$GPRMC,014018.00,A,2236.30780,N,11350.92380,E,9.72,158.20,120414,,,A*5B
$GPRMC,014019.00,A,2236.30480,N,11350.92500,E,9.72,158.20,120414,,,A*5B
$GPRMC,014020.00,A,2236.30240,N,11350.92620,E,7.56,153.43,120414,,,A*5B
$GPRMC,014021.00,A,2236.29940,N,11350.92740,E,9.72,158.20,120414,,,A*5B
$GPRMC,014022.00,A,2236.29580,N,11350.92920,E,13.50,153.43,120414,,,A*5B
$GPRMC,014023.00,A,2236.29280,N,11350.93040,E,9.72,158.20,120414,,,A*5B
$GPRMC,014024.00,A,2236.28980,N,11350.93220,E,11.34,149.04,120414,,,A*5B
$GPRMC,014025.00,A,2236.28620,N,11350.93340,E,11.34,161.57,120414,,,A*5B
$GPRMC,014026.00,A,2236.28320,N,11350.93460,E,9.72,158.20,120414,,,A*5B
$GPRMC,014027.00,A,2236.28080,N,11350.93640,E,9.72,143.13,120414,,,A*5B
$GPRMC,014028.00,A,2236.27780,N,11350.93760,E,9.72,158.20,120414,,,A*5B
$GPRMC,014029.00,A,2236.27480,N,11350.93880,E,9.72,158.20,120414,,,A*5B
$GPRMC,014030.00,A,2236.27120,N,11350.94000,E,11.34,161.57,120414,,,A*5B
$GPRMC,014031.00,A,2236.26820,N,11350.94120,E,9.72,158.20,120414,,,A*5B
$GPRMC,014032.00,A,2236.26520,N,11350.94300,E,11.34,149.04,120414,,,A*5B
$GPRMC,014033.00,A,2236.26220,N,11350.94420,E,9.72,158.20,120414,,,A*5B
$GPRMC,014034.00,A,2236.25920,N,11350.94540,E,9.72,158.20,120414,,,A*5B
$GPRMC,014035.00,A,2236.25560,N,11350.94660,E,11.34,161.57,120414,,,A*5B
$GPRMC,014036.00,A,2236.25260,N,11350.94780,E,9.72,158.20,120414,,,A*5B
$GPRMC,014037.00,A,2236.24960,N,11350.94840,E,9.72,168.69,120414,,,A*5B
$GPRMC,014038.00,A,2236.24780,N,11350.94900,E,5.40,161.57,120414,,,A*5B
$GPRMC,014039.00,A,2236.24540,N,11350.94960,E,7.56,165.96,120414,,,A*5B
$GPRMC,014040.00,A,2236.24300,N,11350.95080,E,7.56,153.43,120414,,,A*5B
$GPRMC,014041.00,A,2236.24120,N,11350.95140,E,5.40,161.57,120414,,,A*5B
$GPRMC,014042.00,A,2236.24000,N,11350.95200,E,3.78,153.43,120414,,,A*5B
$GPRMC,014043.00,A,2236.23820,N,11350.95260,E,5.40,161.57,120414,,,A*5B
$GPRMC,014044.00,A,2236.23700,N,11350.95320,E,3.78,153.43,120414,,,A*5B
$GPRMC,014045.00,A,2236.23580,N,11350.95320,E,3.78,180.00,120414,,,A*5B
$GPRMC,014046.00,A,2236.23520,N,11350.95380,E,1.62,135.00,120414,,,A*5B
$GPRMC,014047.00,A,2236.23460,N,11350.95440,E,1.62,135.00,120414,,,A*5B
$GPRMC,014048.00,A,2236.23400,N,11350.95440,E,1.62,180.00,120414,,,A*5B
$GPRMC,014049.00,A,2236.23340,N,11350.95500,E,1.62,135.00,120414,,,A*5B
$GPRMC,014050.00,A,2236.23280,N,11350.95560,E,1.62,135.00,120414,,,A*5B
$GPRMC,014051.00,A,2236.23220,N,11350.95560,E,1.62,180.00,120414,,,A*5B
$GPRMC,014052.00,A,2236.23160,N,11350.95560,E,1.62,180.00,120414,,,A*5B
$GPRMC,014057.00,A,2236.22980,N,11350.95560,E,1.62,225.00,120414,,,A*5B
$GPRMC,014058.00,A,2236.22920,N,11350.95500,E,1.62,225.00,120414,,,A*5B
$GPRMC,014059.00,A,2236.22740,N,11350.95440,E,5.40,198.43,120414,,,A*5B
$GPRMC,014100.00,A,2236.22680,N,11350.95260,E,5.40,251.57,120414,,,A*5B
$GPRMC,014101.00,A,2236.22560,N,11350.95020,E,7.56,243.43,120414,,,A*5B
$GPRMC,014102.00,A,2236.22500,N,11350.94780,E,7.56,255.96,120414,,,A*5B
$GPRMC,014103.00,A,2236.22320,N,11350.94480,E,11.34,239.04,120414,,,A*5B
$GPRMC,014104.00,A,2236.22200,N,11350.94180,E,9.72,248.20,120414,,,A*5B
$GPRMC,014105.00,A,2236.21960,N,11350.93820,E,13.50,236.31,120414,,,A*5B
$GPRMC,014106.00,A,2236.21780,N,11350.93400,E,13.50,246.80,120414,,,A*5B
$GPRMC,014107.00,A,2236.21540,N,11350.92980,E,15.12,240.26,120414,,,A*5B
$GPRMC,014108.00,A,2236.21300,N,11350.92560,E,15.12,240.26,120414,,,A*5B
$GPRMC,014109.00,A,2236.21060,N,11350.92080,E,17.28,243.43,120414,,,A*5B
$GPRMC,014110.00,A,2236.20820,N,11350.91720,E,13.50,236.31,120414,,,A*5B
$GPRMC,014111.00,A,2236.20640,N,11350.91360,E,13.50,243.43,120414,,,A*5B
$GPRMC,014112.00,A,2236.20520,N,11350.91120,E,7.56,243.43,120414,,,A*5B
$GPRMC,014113.00,A,2236.20400,N,11350.90940,E,5.40,236.31,120414,,,A*5B
$GPRMC,014114.00,A,2236.20280,N,11350.90700,E,7.56,243.43,120414,,,A*5B
$GPRMC,014115.00,A,2236.20280,N,11350.90640,E,1.62,270.00,120414,,,A*5B
$GPRMC,014122.00,A,2236.20220,N,11350.90640,E,1.62,180.00,120414,,,A*5B
$GPRMC,014123.00,A,2236.20160,N,11350.90520,E,3.78,243.43,120414,,,A*5B
$GPRMC,014124.00,A,2236.20040,N,11350.90400,E,5.40,225.00,120414,,,A*5B
$GPRMC,014125.00,A,2236.19920,N,11350.90160,E,7.56,243.43,120414,,,A*5B
$GPRMC,014126.00,A,2236.19800,N,11350.89920,E,7.56,243.43,120414,,,A*5B
$GPRMC,014127.00,A,2236.19680,N,11350.89740,E,5.40,236.31,120414,,,A*5B
$GPRMC,014128.00,A,2236.19560,N,11350.89500,E,7.56,243.43,120414,,,A*5B
$GPRMC,014129.00,A,2236.19440,N,11350.89320,E,5.40,236.31,120414,,,A*5B
$GPRMC,014130.00,A,2236.19320,N,11350.89200,E,5.40,225.00,120414,,,A*5B
$GPRMC,014131.00,A,2236.19200,N,11350.89080,E,5.40,225.00,120414,,,A*5B
$GPRMC,014132.00,A,2236.19140,N,11350.88960,E,3.78,243.43,120414,,,A*5B
$GPRMC,014133.00,A,2236.19020,N,11350.88840,E,5.40,225.00,120414,,,A*5B
$GPRMC,014134.00,A,2236.18960,N,11350.88780,E,1.62,225.00,120414,,,A*5B
$GPRMC,014135.00,A,2236.18900,N,11350.88720,E,1.62,225.00,120414,,,A*5B
$GPRMC,014136.00,A,2236.18900,N,11350.88660,E,1.62,270.00,120414,,,A*5B
$GPRMC,014137.00,A,2236.18840,N,11350.88540,E,3.78,243.43,120414,,,A*5B
$GPRMC,014139.00,A,2236.18840,N,11350.88480,E,1.62,270.00,120414,,,A*5B
$GPRMC,014148.00,A,2236.18660,N,11350.88360,E,1.62,270.00,120414,,,A*5B
$GPRMC,014149.00,A,2236.18600,N,11350.88300,E,1.62,225.00,120414,,,A*5B
$GPRMC,014150.00,A,2236.18540,N,11350.88240,E,1.62,225.00,120414,,,A*5B
$GPRMC,014151.00,A,2236.18480,N,11350.88180,E,1.62,225.00,120414,,,A*5B
$GPRMC,014152.00,A,2236.18480,N,11350.88120,E,1.62,270.00,120414,,,A*5B
$GPRMC,014153.00,A,2236.18420,N,11350.88000,E,3.78,243.43,120414,,,A*5B
$GPRMC,014154.00,A,2236.18300,N,11350.87940,E,3.78,206.57,120414,,,A*5B
$GPRMC,014155.00,A,2236.18300,N,11350.87820,E,3.78,270.00,120414,,,A*5B
$GPRMC,014156.00,A,2236.18240,N,11350.87760,E,1.62,225.00,120414,,,A*5B
$GPRMC,014157.00,A,2236.18180,N,11350.87700,E,1.62,225.00,120414,,,A*5B
$GPRMC,014158.00,A,2236.18120,N,11350.87640,E,1.62,225.00,120414,,,A*5B
$GPRMC,014159.00,A,2236.18060,N,11350.87580,E,1.62,225.00,120414,,,A*5B
$GPRMC,014200.00,A,2236.18000,N,11350.87580,E,1.62,180.00,120414,,,A*5B
$GPRMC,014204.00,A,2236.17880,N,11350.87460,E,1.62,220.01,120414,,,A*5B
$GPRMC,014205.00,A,2236.17820,N,11350.87400,E,1.62,225.00,120414,,,A*5B
$GPRMC,014206.00,A,2236.17760,N,11350.87400,E,1.62,180.00,120414,,,A*5B
$GPRMC,014207.00,A,2236.17760,N,11350.87340,E,1.62,270.00,120414,,,A*5B
$GPRMC,014208.00,A,2236.17700,N,11350.87280,E,1.62,225.00,120414,,,A*5B
$GPRMC,014259.00,A,2236.17640,N,11350.86920,E,1.62,225.00,120414,,,A*5B
$GPRMC,014300.00,A,2236.17580,N,11350.86920,E,1.62,180.00,120414,,,A*5B
$GPRMC,014626.00,A,2236.17280,N,11350.86560,E,1.62,205.42,120414,,,A*5B
$GPRMC,014627.00,A,2236.17220,N,11350.86560,E,1.62,180.00,120414,,,A*5B
$GPRMC,014633.00,A,2236.17160,N,11350.86500,E,2.16,206.33,120414,,,A*5B
$GPRMC,014634.00,A,2236.17100,N,11350.86440,E,1.62,225.00,120414,,,A*5B
$GPRMC,014635.00,A,2236.17040,N,11350.86440,E,1.62,180.00,120414,,,A*5B
$GPRMC,014636.00,A,2236.16980,N,11350.86380,E,1.62,225.00,120414,,,A*5B
$GPRMC,014637.00,A,2236.16920,N,11350.86320,E,1.62,225.00,120414,,,A*5B
$GPRMC,014638.00,A,2236.16800,N,11350.86260,E,3.78,206.57,120414,,,A*5B
$GPRMC,014639.00,A,2236.16740,N,11350.86200,E,1.62,225.00,120414,,,A*5B
$GPRMC,014643.00,A,2236.16560,N,11350.86140,E,2.70,213.21,120414,,,A*5B
$GPRMC,014644.00,A,2236.16500,N,11350.86080,E,1.62,225.00,120414,,,A*5B
$GPRMC,014645.00,A,2236.16440,N,11350.86020,E,1.62,225.00,120414,,,A*5B
$GPRMC,014646.00,A,2236.16380,N,11350.85960,E,1.62,225.00,120414,,,A*5B
$GPRMC,014647.00,A,2236.16260,N,11350.85900,E,3.78,206.57,120414,,,A*5B
$GPRMC,014648.00,A,2236.16200,N,11350.85780,E,3.78,243.43,120414,,,A*5B
$GPRMC,014649.00,A,2236.16020,N,11350.85720,E,5.40,198.43,120414,,,A*5B
$GPRMC,014650.00,A,2236.15900,N,11350.85600,E,5.40,225.00,120414,,,A*5B
$GPRMC,014651.00,A,2236.15780,N,11350.85480,E,5.40,225.00,120414,,,A*5B
$GPRMC,014652.00,A,2236.15720,N,11350.85300,E,5.40,251.57,120414,,,A*5B
$GPRMC,014653.00,A,2236.15600,N,11350.85120,E,5.40,236.31,120414,,,A*5B
$GPRMC,014654.00,A,2236.15480,N,11350.84940,E,5.40,236.31,120414,,,A*5B
$GPRMC,014655.00,A,2236.15300,N,11350.84760,E,7.56,225.00,120414,,,A*5B
$GPRMC,014656.00,A,2236.15120,N,11350.84640,E,5.40,213.69,120414,,,A*5B
$GPRMC,014657.00,A,2236.14940,N,11350.84520,E,5.40,213.69,120414,,,A*5B
$GPRMC,014658.00,A,2236.14700,N,11350.84340,E,9.72,216.87,120414,,,A*5B
$GPRMC,014659.00,A,2236.14460,N,11350.84160,E,9.72,216.87,120414,,,A*5B
$GPRMC,014700.00,A,2236.14160,N,11350.84040,E,9.72,201.80,120414,,,A*5B
$GPRMC,014701.00,A,2236.13800,N,11350.83860,E,13.50,206.57,120414,,,A*5B
$GPRMC,014702.00,A,2236.13500,N,11350.83740,E,9.72,201.80,120414,,,A*5B
$GPRMC,014703.00,A,2236.13200,N,11350.83680,E,9.72,191.31,120414,,,A*5B
$GPRMC,014704.00,A,2236.12840,N,11350.83620,E,11.34,189.46,120414,,,A*5B
$GPRMC,014705.00,A,2236.12540,N,11350.83620,E,9.72,180.00,120414,,,A*5B
$GPRMC,014706.00,A,2236.12240,N,11350.83560,E,9.72,191.31,120414,,,A*5B
$GPRMC,014707.00,A,2236.12000,N,11350.83560,E,7.56,180.00,120414,,,A*5B
$GPRMC,014708.00,A,2236.11760,N,11350.83680,E,7.56,153.43,120414,,,A*5B
$GPRMC,014709.00,A,2236.11520,N,11350.83740,E,7.56,165.96,120414,,,A*5B
$GPRMC,014710.00,A,2236.11340,N,11350.83860,E,5.40,146.31,120414,,,A*5B
$GPRMC,014711.00,A,2236.11100,N,11350.83920,E,7.56,165.96,120414,,,A*5B
$GPRMC,014712.00,A,2236.10920,N,11350.84040,E,5.40,146.31,120414,,,A*5B
$GPRMC,014713.00,A,2236.10680,N,11350.84160,E,7.56,153.43,120414,,,A*5B
$GPRMC,014714.00,A,2236.10440,N,11350.84280,E,7.56,153.43,120414,,,A*5B
$GPRMC,014715.00,A,2236.10200,N,11350.84460,E,9.72,143.13,120414,,,A*5B
$GPRMC,014716.00,A,2236.10020,N,11350.84580,E,5.40,146.31,120414,,,A*5B
$GPRMC,014717.00,A,2236.09780,N,11350.84700,E,7.56,153.43,120414,,,A*5B
$GPRMC,014718.00,A,2236.09540,N,11350.84880,E,9.72,143.13,120414,,,A*5B
$GPRMC,014719.00,A,2236.09240,N,11350.85060,E,11.34,149.04,120414,,,A*5B
$GPRMC,014720.00,A,2236.09000,N,11350.85240,E,9.72,143.13,120414,,,A*5B
$GPRMC,014721.00,A,2236.08700,N,11350.85420,E,11.34,149.04,120414,,,A*5B
$GPRMC,014722.00,A,2236.08460,N,11350.85600,E,9.72,143.13,120414,,,A*5B
$GPRMC,014723.00,A,2236.08280,N,11350.85720,E,5.40,146.31,120414,,,A*5B
$GPRMC,014724.00,A,2236.08040,N,11350.85900,E,9.72,143.13,120414,,,A*5B
$GPRMC,014725.00,A,2236.07860,N,11350.86020,E,5.40,146.31,120414,,,A*5B
$GPRMC,014726.00,A,2236.07740,N,11350.86140,E,5.40,135.00,120414,,,A*5B
$GPRMC,014727.00,A,2236.07560,N,11350.86260,E,5.40,146.31,120414,,,A*5B
$GPRMC,014728.00,A,2236.07380,N,11350.86380,E,5.40,146.31,120414,,,A*5B
$GPRMC,014729.00,A,2236.07200,N,11350.86500,E,5.40,146.31,120414,,,A*5B
$GPRMC,014730.00,A,2236.07020,N,11350.86620,E,5.40,146.31,120414,,,A*5B
$GPRMC,014731.00,A,2236.06780,N,11350.86740,E,7.56,153.43,120414,,,A*5B
$GPRMC,014732.00,A,2236.06540,N,11350.86860,E,7.56,153.43,120414,,,A*5B
$GPRMC,014733.00,A,2236.06300,N,11350.86980,E,7.56,153.43,120414,,,A*5B
$GPRMC,014734.00,A,2236.06060,N,11350.87160,E,9.72,143.13,120414,,,A*5B
$GPRMC,014735.00,A,2236.05820,N,11350.87280,E,7.56,153.43,120414,,,A*5B
$GPRMC,014736.00,A,2236.05460,N,11350.87460,E,13.50,153.43,120414,,,A*5B
$GPRMC,014737.00,A,2236.05100,N,11350.87580,E,11.34,161.57,120414,,,A*5B
$GPRMC,014738.00,A,2236.04740,N,11350.87700,E,11.34,161.57,120414,,,A*5B
$GPRMC,014739.00,A,2236.04380,N,11350.87820,E,11.34,161.57,120414,,,A*5B
$GPRMC,014740.00,A,2236.04020,N,11350.88000,E,13.50,153.43,120414,,,A*5B
$GPRMC,014741.00,A,2236.03600,N,11350.88120,E,15.12,164.05,120414,,,A*5B
$GPRMC,014742.00,A,2236.03180,N,11350.88240,E,15.12,164.05,120414,,,A*5B
$GPRMC,014743.00,A,2236.02760,N,11350.88300,E,13.50,171.87,120414,,,A*5B
$GPRMC,014744.00,A,2236.02340,N,11350.88420,E,15.12,164.05,120414,,,A*5B
$GPRMC,014745.00,A,2236.01920,N,11350.88540,E,15.12,164.05,120414,,,A*5B
$GPRMC,014746.00,A,2236.01500,N,11350.88660,E,15.12,164.05,120414,,,A*5B
$GPRMC,014747.00,A,2236.01140,N,11350.88780,E,11.34,161.57,120414,,,A*5B
$GPRMC,014748.00,A,2236.00720,N,11350.88900,E,15.12,164.05,120414,,,A*5B
$GPRMC,014749.00,A,2236.00360,N,11350.88960,E,11.34,170.54,120414,,,A*5B
$GPRMC,014750.00,A,2236.00060,N,11350.89020,E,9.72,168.69,120414,,,A*5B
$GPRMC,014751.00,A,2235.99760,N,11350.89020,E,9.72,180.00,120414,,,A*5B
$GPRMC,014752.00,A,2235.99520,N,11350.89080,E,7.56,165.96,120414,,,A*5B
$GPRMC,014753.00,A,2235.99340,N,11350.89080,E,5.40,180.00,120414,,,A*5B
$GPRMC,014754.00,A,2235.99160,N,11350.89200,E,5.40,146.31,120414,,,A*5B
$GPRMC,014755.00,A,2235.99040,N,11350.89200,E,3.78,180.00,120414,,,A*5B
$GPRMC,014756.00,A,2235.98860,N,11350.89200,E,5.40,180.00,120414,,,A*5B
$GPRMC,014757.00,A,2235.98620,N,11350.89260,E,7.56,165.96,120414,,,A*5B
$GPRMC,014758.00,A,2235.98380,N,11350.89440,E,9.72,143.13,120414,,,A*5B
$GPRMC,014759.00,A,2235.98080,N,11350.89560,E,9.72,158.20,120414,,,A*5B
$GPRMC,014800.00,A,2235.97780,N,11350.89680,E,9.72,158.20,120414,,,A*5B
$GPRMC,014801.00,A,2235.97420,N,11350.89740,E,11.34,170.54,120414,,,A*5B
$GPRMC,014802.00,A,2235.97060,N,11350.89860,E,11.34,161.57,120414,,,A*5B
$GPRMC,014803.00,A,2235.96640,N,11350.89980,E,15.12,164.05,120414,,,A*5B
$GPRMC,014804.00,A,2235.96220,N,11350.90160,E,15.12,156.80,120414,,,A*5B
$GPRMC,014805.00,A,2235.95740,N,11350.90340,E,17.28,159.44,120414,,,A*5B
$GPRMC,014806.00,A,2235.95260,N,11350.90520,E,17.28,159.44,120414,,,A*5B
$GPRMC,014807.00,A,2235.94780,N,11350.90700,E,17.28,159.44,120414,,,A*5B
$GPRMC,014808.00,A,2235.94360,N,11350.90880,E,15.12,156.80,120414,,,A*5B
$GPRMC,014809.00,A,2235.93940,N,11350.91000,E,15.12,164.05,120414,,,A*5B
$GPRMC,014810.00,A,2235.93580,N,11350.91060,E,11.34,170.54,120414,,,A*5B
$GPRMC,014811.00,A,2235.93220,N,11350.91180,E,11.34,161.57,120414,,,A*5B
$GPRMC,014812.00,A,2235.92980,N,11350.91240,E,7.56,165.96,120414,,,A*5B
$GPRMC,014813.00,A,2235.92800,N,11350.91300,E,5.40,161.57,120414,,,A*5B
$GPRMC,014814.00,A,2235.92620,N,11350.91480,E,7.56,135.00,120414,,,A*5B
$GPRMC,014815.00,A,2235.92560,N,11350.91660,E,5.40,108.43,120414,,,A*5B
$GPRMC,014816.00,A,2235.92560,N,11350.91900,E,7.56,90.00,120414,,,A*5B
$GPRMC,014817.00,A,2235.92560,N,11350.92200,E,9.72,90.00,120414,,,A*5B
$GPRMC,014818.00,A,2235.92560,N,11350.92620,E,13.50,90.00,120414,,,A*5B
$GPRMC,014819.00,A,2235.92620,N,11350.93040,E,13.50,81.87,120414,,,A*5B
$GPRMC,014820.00,A,2235.92680,N,11350.93460,E,13.50,81.87,120414,,,A*5B
$GPRMC,014821.00,A,2235.92680,N,11350.93940,E,15.12,90.00,120414,,,A*5B
$GPRMC,014822.00,A,2235.92740,N,11350.94300,E,11.34,80.54,120414,,,A*5B
$GPRMC,014823.00,A,2235.92740,N,11350.94600,E,9.72,90.00,120414,,,A*5B
$GPRMC,014824.00,A,2235.92740,N,11350.94780,E,5.40,90.00,120414,,,A*5B
$GPRMC,014825.00,A,2235.92740,N,11350.95020,E,7.56,90.00,120414,,,A*5B
$GPRMC,014826.00,A,2235.92680,N,11350.95260,E,7.56,104.04,120414,,,A*5B
$GPRMC,014827.00,A,2235.92620,N,11350.95440,E,5.40,108.43,120414,,,A*5B
$GPRMC,014828.00,A,2235.92620,N,11350.95620,E,5.40,90.00,120414,,,A*5B
$GPRMC,014829.00,A,2235.92620,N,11350.95800,E,5.40,90.00,120414,,,A*5B
$GPRMC,014830.00,A,2235.92620,N,11350.95980,E,5.40,90.00,120414,,,A*5B
$GPRMC,014831.00,A,2235.92620,N,11350.96220,E,7.56,90.00,120414,,,A*5B
$GPRMC,014832.00,A,2235.92560,N,11350.96460,E,7.56,104.04,120414,,,A*5B
$GPRMC,014833.00,A,2235.92560,N,11350.96700,E,7.56,90.00,120414,,,A*5B
$GPRMC,014834.00,A,2235.92500,N,11350.96940,E,7.56,104.04,120414,,,A*5B
$GPRMC,014835.00,A,2235.92440,N,11350.97120,E,5.40,108.43,120414,,,A*5B
$GPRMC,014836.00,A,2235.92440,N,11350.97360,E,7.56,90.00,120414,,,A*5B
$GPRMC,014837.00,A,2235.92380,N,11350.97480,E,3.78,116.57,120414,,,A*5B
$GPRMC,014838.00,A,2235.92380,N,11350.97540,E,1.62,90.00,120414,,,A*5B
$GPRMC,014839.00,A,2235.92320,N,11350.97600,E,1.62,135.00,120414,,,A*5B
$GPRMC,014841.00,A,2235.92320,N,11350.97720,E,2.16,82.62,120414,,,A*5B
$GPRMC,014842.00,A,2235.92380,N,11350.97840,E,3.78,63.43,120414,,,A*5B
$GPRMC,014843.00,A,2235.92380,N,11350.97960,E,3.78,90.00,120414,,,A*5B
$GPRMC,014844.00,A,2235.92320,N,11350.98080,E,3.78,116.57,120414,,,A*5B
$GPRMC,014845.00,A,2235.92260,N,11350.98200,E,3.78,116.57,120414,,,A*5B
$GPRMC,014846.00,A,2235.92140,N,11350.98380,E,5.40,123.69,120414,,,A*5B
$GPRMC,014847.00,A,2235.92020,N,11350.98560,E,5.40,123.69,120414,,,A*5B
$GPRMC,014848.00,A,2235.91900,N,11350.98740,E,5.40,123.69,120414,,,A*5B
$GPRMC,014849.00,A,2235.91840,N,11350.98920,E,5.40,108.43,120414,,,A*5B
$GPRMC,014850.00,A,2235.91720,N,11350.99100,E,5.40,123.69,120414,,,A*5B
$GPRMC,014851.00,A,2235.91660,N,11350.99280,E,5.40,108.43,120414,,,A*5B
$GPRMC,014852.00,A,2235.91540,N,11350.99400,E,5.40,135.00,120414,,,A*5B
$GPRMC,014853.00,A,2235.91420,N,11350.99580,E,5.40,123.69,120414,,,A*5B
$GPRMC,014854.00,A,2235.91300,N,11350.99700,E,5.40,135.00,120414,,,A*5B
$GPRMC,014855.00,A,2235.91120,N,11350.99760,E,5.40,161.57,120414,,,A*5B
$GPRMC,014856.00,A,2235.90880,N,11350.99820,E,7.56,165.96,120414,,,A*5B
$GPRMC,014857.00,A,2235.90640,N,11350.99880,E,7.56,165.96,120414,,,A*5B
$GPRMC,014858.00,A,2235.90400,N,11350.99940,E,7.56,165.96,120414,,,A*5B
$GPRMC,014859.00,A,2235.90160,N,11351.00000,E,7.56,165.96,120414,,,A*5B
$GPRMC,014900.00,A,2235.89920,N,11351.00060,E,7.56,165.96,120414,,,A*5B
