$GPRMC,114802.00,A,2234.95960,N,11351.35820,E,7.02,38.84,210414,,,A*5B
$GPRMC,114803.00,A,2234.96380,N,11351.36180,E,7.02,34.02,210414,,,A*5B
$GPRMC,114804.00,A,2234.96500,N,11351.36240,E,7.02,29.15,210414,,,A*5B
$GPRMC,114805.00,A,2234.96620,N,11351.36300,E,7.02,29.71,210414,,,A*5B
$GPRMC,114806.00,A,2234.96680,N,11351.36420,E,8.64,33.90,210414,,,A*5B
$GPRMC,114807.00,A,2234.96800,N,11351.36540,E,10.80,37.33,210414,,,A*5B
$GPRMC,114808.00,A,2234.97040,N,11351.36780,E,12.42,38.57,210414,,,A*5B
$GPRMC,114809.00,A,2234.97220,N,11351.36960,E,11.88,39.78,210414,,,A*5B
$GPRMC,114810.00,A,2234.97460,N,11351.37200,E,11.88,41.55,210414,,,A*5B
$GPRMC,114811.00,A,2234.97640,N,11351.37500,E,12.42,43.79,210414,,,A*5B
$GPRMC,114812.00,A,2234.97820,N,11351.37740,E,12.42,44.54,210414,,,A*5B
$GPRMC,114813.00,A,2234.98060,N,11351.38040,E,12.96,43.29,210414,,,A*5B
$GPRMC,114814.00,A,2234.98240,N,11351.38280,E,12.42,43.60,210414,,,A*5B
$GPRMC,114815.00,A,2234.98420,N,11351.38520,E,12.42,42.03,210414,,,A*5B
$GPRMC,114816.00,A,2234.98660,N,11351.38760,E,11.88,40.99,210414,,,A*5B
$GPRMC,114817.00,A,2234.98900,N,11351.39000,E,11.34,41.44,210414,,,A*5B
$GPRMC,114818.00,A,2234.99080,N,11351.39240,E,10.80,41.87,210414,,,A*5B
$GPRMC,114819.00,A,2234.99320,N,11351.39420,E,10.26,40.64,210414,,,A*5B
$GPRMC,114820.00,A,2234.99440,N,11351.39600,E,9.72,39.53,210414,,,A*5B
$GPRMC,114821.00,A,2234.99620,N,11351.39720,E,8.64,38.32,210414,,,A*5B
$GPRMC,114822.00,A,2234.99620,N,11351.39840,E,7.56,38.38,210414,,,A*5B
$GPRMC,114823.00,A,2234.99740,N,11351.39960,E,7.02,38.21,210414,,,A*5B
$GPRMC,114824.00,A,2234.99920,N,11351.40080,E,7.02,38.47,210414,,,A*5B
$GPRMC,114825.00,A,2235.00040,N,11351.40200,E,7.02,39.95,210414,,,A*5B
$GPRMC,114826.00,A,2235.00220,N,11351.40380,E,8.64,39.28,210414,,,A*5B
$GPRMC,114827.00,A,2235.00460,N,11351.40560,E,9.18,37.67,210414,,,A*5B
$GPRMC,114828.00,A,2235.00640,N,11351.40680,E,8.10,36.62,210414,,,A*5B
$GPRMC,114829.00,A,2235.00820,N,11351.40800,E,8.64,36.23,210414,,,A*5B
$GPRMC,114830.00,A,2235.00940,N,11351.40980,E,8.10,36.20,210414,,,A*5B
$GPRMC,114831.00,A,2235.01060,N,11351.41100,E,8.10,35.93,210414,,,A*5B
$GPRMC,114832.00,A,2235.01180,N,11351.41220,E,8.64,36.99,210414,,,A*5B
$GPRMC,114833.00,A,2235.01480,N,11351.41400,E,8.64,38.52,210414,,,A*5B
$GPRMC,114834.00,A,2235.01660,N,11351.41580,E,7.56,43.88,210414,,,A*5B
$GPRMC,114835.00,A,2235.01780,N,11351.41760,E,8.10,46.92,210414,,,A*5B
$GPRMC,114836.00,A,2235.01960,N,11351.42000,E,8.64,44.50,210414,,,A*5B
$GPRMC,114837.00,A,2235.02140,N,11351.42180,E,10.26,43.99,210414,,,A*5B
$GPRMC,114838.00,A,2235.02380,N,11351.42420,E,10.80,43.31,210414,,,A*5B
$GPRMC,114839.00,A,2235.02620,N,11351.42660,E,10.80,42.68,210414,,,A*5B
$GPRMC,114840.00,A,2235.02860,N,11351.42840,E,10.26,42.21,210414,,,A*5B
$GPRMC,114841.00,A,2235.03040,N,11351.43080,E,10.26,41.61,210414,,,A*5B
$GPRMC,114842.00,A,2235.03280,N,11351.43260,E,9.72,42.09,210414,,,A*5B
$GPRMC,114843.00,A,2235.03400,N,11351.43440,E,7.56,42.68,210414,,,A*5B
$GPRMC,114844.00,A,2235.03580,N,11351.43620,E,7.02,42.94,210414,,,A*5B
$GPRMC,114845.00,A,2235.03700,N,11351.43740,E,6.48,42.83,210414,,,A*5B
$GPRMC,114846.00,A,2235.03820,N,11351.43860,E,5.94,40.73,210414,,,A*5B
$GPRMC,114847.00,A,2235.04000,N,11351.43980,E,6.48,40.18,210414,,,A*5B
$GPRMC,114848.00,A,2235.04120,N,11351.44100,E,5.94,40.79,210414,,,A*5B
$GPRMC,114849.00,A,2235.04240,N,11351.44220,E,6.48,42.90,210414,,,A*5B
$GPRMC,114850.00,A,2235.04360,N,11351.44400,E,6.48,45.37,210414,,,A*5B
$GPRMC,114851.00,A,2235.04540,N,11351.44640,E,7.56,48.11,210414,,,A*5B
$GPRMC,114852.00,A,2235.04660,N,11351.44820,E,7.56,49.02,210414,,,A*5B
$GPRMC,114853.00,A,2235.04780,N,11351.44940,E,7.56,45.91,210414,,,A*5B
$GPRMC,114854.00,A,2235.04960,N,11351.45180,E,9.18,42.14,210414,,,A*5B
$GPRMC,114855.00,A,2235.05200,N,11351.45360,E,11.34,40.91,210414,,,A*5B
$GPRMC,114856.00,A,2235.05500,N,11351.45600,E,12.96,40.78,210414,,,A*5B
$GPRMC,114857.00,A,2235.05800,N,11351.45900,E,14.58,40.40,210414,,,A*5B
$GPRMC,114858.00,A,2235.06160,N,11351.46200,E,15.12,40.96,210414,,,A*5B
$GPRMC,114859.00,A,2235.06460,N,11351.46500,E,15.12,43.05,210414,,,A*5B
$GPRMC,114900.00,A,2235.06760,N,11351.46800,E,14.58,44.26,210414,,,A*5B
$GPRMC,114901.00,A,2235.07000,N,11351.47100,E,14.04,45.86,210414,,,A*5B
$GPRMC,114902.00,A,2235.07300,N,11351.47400,E,13.50,47.20,210414,,,A*5B
$GPRMC,114903.00,A,2235.07540,N,11351.47640,E,11.88,46.43,210414,,,A*5B
$GPRMC,114904.00,A,2235.07720,N,11351.47940,E,10.26,45.03,210414,,,A*5B
$GPRMC,114905.00,A,2235.07900,N,11351.48120,E,9.18,43.69,210414,,,A*5B
$GPRMC,114906.00,A,2235.08020,N,11351.48180,E,4.86,42.87,210414,,,A*5B
$GPRMC,114907.00,A,2235.08080,N,11351.48300,E,2.70,42.66,210414,,,A*5B
$GPRMC,114914.00,A,2235.08200,N,11351.48360,E,1.62,41.43,210414,,,A*5B
$GPRMC,114915.00,A,2235.08260,N,11351.48420,E,2.70,42.82,210414,,,A*5B
$GPRMC,114916.00,A,2235.08320,N,11351.48480,E,3.24,45.01,210414,,,A*5B
$GPRMC,114917.00,A,2235.08380,N,11351.48540,E,3.24,44.47,210414,,,A*5B
$GPRMC,114918.00,A,2235.08500,N,11351.48660,E,4.32,43.73,210414,,,A*5B
$GPRMC,114919.00,A,2235.08620,N,11351.48780,E,5.40,44.72,210414,,,A*5B
$GPRMC,114920.00,A,2235.08680,N,11351.48900,E,4.86,45.73,210414,,,A*5B
$GPRMC,114921.00,A,2235.08740,N,11351.49080,E,4.32,55.58,210414,,,A*5B
$GPRMC,114922.00,A,2235.08740,N,11351.49200,E,3.24,54.34,210414,,,A*5B
$GPRMC,114923.00,A,2235.08800,N,11351.49260,E,2.70,52.81,210414,,,A*5B
$GPRMC,114924.00,A,2235.08860,N,11351.49320,E,1.62,54.01,210414,,,A*5B
$GPRMC,114925.00,A,2235.08860,N,11351.49380,E,1.62,52.45,210414,,,A*5B
$GPRMC,114950.00,A,2235.09220,N,11351.49920,E,1.62,68.89,210414,,,A*5B
$GPRMC,114951.00,A,2235.09280,N,11351.49980,E,2.16,70.16,210414,,,A*5B
$GPRMC,114952.00,A,2235.09280,N,11351.50040,E,2.70,74.40,210414,,,A*5B
$GPRMC,114953.00,A,2235.09340,N,11351.50160,E,3.24,78.37,210414,,,A*5B
$GPRMC,114954.00,A,2235.09340,N,11351.50280,E,4.32,84.75,210414,,,A*5B
$GPRMC,114955.00,A,2235.09280,N,11351.50460,E,5.94,102.63,210414,,,A*5B
$GPRMC,114956.00,A,2235.09280,N,11351.50640,E,8.10,111.97,210414,,,A*5B
$GPRMC,114957.00,A,2235.09100,N,11351.50880,E,10.26,116.21,210414,,,A*5B
$GPRMC,114958.00,A,2235.08980,N,11351.51180,E,9.72,118.51,210414,,,A*5B
$GPRMC,114959.00,A,2235.08860,N,11351.51420,E,10.26,119.43,210414,,,A*5B
$GPRMC,115000.00,A,2235.08680,N,11351.51780,E,13.50,119.03,210414,,,A*5B
$GPRMC,115001.00,A,2235.08440,N,11351.52140,E,16.20,119.25,210414,,,A*5B
$GPRMC,115002.00,A,2235.08200,N,11351.52560,E,17.28,127.72,210414,,,A*5B
$GPRMC,115003.00,A,2235.07900,N,11351.52980,E,17.28,121.50,210414,,,A*5B
$GPRMC,115004.00,A,2235.07660,N,11351.53460,E,18.36,127.35,210414,,,A*5B
$GPRMC,115005.00,A,2235.07360,N,11351.53940,E,19.44,125.04,210414,,,A*5B
$GPRMC,115006.00,A,2235.07000,N,11351.54420,E,21.06,124.90,210414,,,A*5B
$GPRMC,115007.00,A,2235.06640,N,11351.55020,E,23.22,124.83,210414,,,A*5B
$GPRMC,115008.00,A,2235.06280,N,11351.55620,E,24.30,125.66,210414,,,A*5B
$GPRMC,115009.00,A,2235.05860,N,11351.56220,E,25.38,126.54,210414,,,A*5B
$GPRMC,115010.00,A,2235.05440,N,11351.56880,E,25.92,127.21,210414,,,A*5B
$GPRMC,115011.00,A,2235.05020,N,11351.57480,E,26.46,127.65,210414,,,A*5B
$GPRMC,115012.00,A,2235.04540,N,11351.58140,E,27.00,128.23,210414,,,A*5B
$GPRMC,115013.00,A,2235.04060,N,11351.58800,E,28.08,128.20,210414,,,A*5B
$GPRMC,115014.00,A,2235.03580,N,11351.59460,E,28.62,127.98,210414,,,A*5B
$GPRMC,115015.00,A,2235.03100,N,11351.60180,E,28.62,128.51,210414,,,A*5B
$GPRMC,115016.00,A,2235.02560,N,11351.60840,E,28.08,128.88,210414,,,A*5B
$GPRMC,115017.00,A,2235.02080,N,11351.61500,E,28.08,129.28,210414,,,A*5B
$GPRMC,115018.00,A,2235.01600,N,11351.62160,E,28.62,130.32,210414,,,A*5B
$GPRMC,115019.00,A,2235.01060,N,11351.62820,E,29.16,131.60,210414,,,A*5B
$GPRMC,115020.00,A,2235.00520,N,11351.63480,E,29.16,131.26,210414,,,A*5B
$GPRMC,115021.00,A,2234.99920,N,11351.64140,E,29.16,131.57,210414,,,A*5B
$GPRMC,115022.00,A,2234.99380,N,11351.64800,E,29.16,131.78,210414,,,A*5B
$GPRMC,115023.00,A,2234.98840,N,11351.65460,E,28.62,132.17,210414,,,A*5B
$GPRMC,115024.00,A,2234.98300,N,11351.66060,E,28.08,132.81,210414,,,A*5B
$GPRMC,115025.00,A,2234.97760,N,11351.66660,E,28.08,134.21,210414,,,A*5B
$GPRMC,115026.00,A,2234.97220,N,11351.67320,E,28.08,136.09,210414,,,A*5B
$GPRMC,115027.00,A,2234.96680,N,11351.67980,E,27.54,133.37,210414,,,A*5B
$GPRMC,115028.00,A,2234.96140,N,11351.68520,E,27.00,135.39,210414,,,A*5B
$GPRMC,115029.00,A,2234.95600,N,11351.69120,E,27.00,135.62,210414,,,A*5B
$GPRMC,115030.00,A,2234.95060,N,11351.69720,E,25.92,135.83,210414,,,A*5B
$GPRMC,115031.00,A,2234.94520,N,11351.70260,E,25.92,135.84,210414,,,A*5B
$GPRMC,115032.00,A,2234.93980,N,11351.70800,E,25.38,136.35,210414,,,A*5B
$GPRMC,115033.00,A,2234.93500,N,11351.71340,E,24.30,136.22,210414,,,A*5B
$GPRMC,115034.00,A,2234.92960,N,11351.71820,E,24.30,137.31,210414,,,A*5B
$GPRMC,115035.00,A,2234.92480,N,11351.72360,E,23.76,135.20,210414,,,A*5B
$GPRMC,115036.00,A,2234.92000,N,11351.72840,E,23.22,135.36,210414,,,A*5B
$GPRMC,115037.00,A,2234.91520,N,11351.73320,E,22.68,135.76,210414,,,A*5B
$GPRMC,115038.00,A,2234.91100,N,11351.73800,E,21.60,135.61,210414,,,A*5B
$GPRMC,115039.00,A,2234.90680,N,11351.74220,E,19.98,136.81,210414,,,A*5B
$GPRMC,115040.00,A,2234.90260,N,11351.74640,E,17.82,135.68,210414,,,A*5B
$GPRMC,115041.00,A,2234.89900,N,11351.75000,E,16.74,136.89,210414,,,A*5B
$GPRMC,115042.00,A,2234.89600,N,11351.75360,E,15.12,136.94,210414,,,A*5B
$GPRMC,115043.00,A,2234.89300,N,11351.75660,E,13.50,135.29,210414,,,A*5B
$GPRMC,115044.00,A,2234.89060,N,11351.75900,E,11.88,136.88,210414,,,A*5B
$GPRMC,115045.00,A,2234.88820,N,11351.76140,E,10.26,136.27,210414,,,A*5B
$GPRMC,115046.00,A,2234.88640,N,11351.76320,E,8.10,136.20,210414,,,A*5B
$GPRMC,115047.00,A,2234.88460,N,11351.76440,E,6.48,136.55,210414,,,A*5B
$GPRMC,115048.00,A,2234.88340,N,11351.76560,E,4.86,136.70,210414,,,A*5B
$GPRMC,115049.00,A,2234.88280,N,11351.76620,E,2.70,136.45,210414,,,A*5B
$GPRMC,115050.00,A,2234.88220,N,11351.76740,E,2.16,135.64,210414,,,A*5B
$GPRMC,115051.00,A,2234.88220,N,11351.76740,E,1.62,136.16,210414,,,A*5B
$GPRMC,115121.00,A,2234.88040,N,11351.77040,E,1.62,135.76,210414,,,A*5B
$GPRMC,115122.00,A,2234.87980,N,11351.77100,E,2.70,136.79,210414,,,A*5B
$GPRMC,115123.00,A,2234.87920,N,11351.77160,E,3.24,134.78,210414,,,A*5B
$GPRMC,115124.00,A,2234.87860,N,11351.77280,E,3.78,135.04,210414,,,A*5B
$GPRMC,115125.00,A,2234.87740,N,11351.77340,E,5.40,136.00,210414,,,A*5B
$GPRMC,115126.00,A,2234.87620,N,11351.77520,E,7.02,137.28,210414,,,A*5B
$GPRMC,115127.00,A,2234.87440,N,11351.77640,E,7.56,137.51,210414,,,A*5B
$GPRMC,115128.00,A,2234.87320,N,11351.77820,E,7.02,136.84,210414,,,A*5B
$GPRMC,115129.00,A,2234.87140,N,11351.78000,E,8.64,136.90,210414,,,A*5B
$GPRMC,115130.00,A,2234.86960,N,11351.78180,E,10.26,136.01,210414,,,A*5B
$GPRMC,115131.00,A,2234.86720,N,11351.78420,E,9.72,136.19,210414,,,A*5B
$GPRMC,115132.00,A,2234.86540,N,11351.78600,E,9.18,137.41,210414,,,A*5B
$GPRMC,115133.00,A,2234.86360,N,11351.78780,E,9.18,135.77,210414,,,A*5B
$GPRMC,115134.00,A,2234.86180,N,11351.79020,E,9.18,135.94,210414,,,A*5B
$GPRMC,115135.00,A,2234.86000,N,11351.79140,E,8.64,137.01,210414,,,A*5B
$GPRMC,115136.00,A,2234.85760,N,11351.79380,E,9.18,137.18,210414,,,A*5B
$GPRMC,115137.00,A,2234.85580,N,11351.79560,E,9.18,137.38,210414,,,A*5B
$GPRMC,115138.00,A,2234.85400,N,11351.79740,E,9.18,137.86,210414,,,A*5B
$GPRMC,115139.00,A,2234.85160,N,11351.79920,E,8.64,136.60,210414,,,A*5B
$GPRMC,115140.00,A,2234.84980,N,11351.80040,E,8.10,135.48,210414,,,A*5B
$GPRMC,115141.00,A,2234.84860,N,11351.80220,E,7.56,131.41,210414,,,A*5B
$GPRMC,115142.00,A,2234.84740,N,11351.80460,E,7.02,124.46,210414,,,A*5B
$GPRMC,115143.00,A,2234.84620,N,11351.80640,E,7.56,116.55,210414,,,A*5B
$GPRMC,115144.00,A,2234.84560,N,11351.80880,E,8.64,107.46,210414,,,A*5B
$GPRMC,115145.00,A,2234.84500,N,11351.81180,E,9.18,96.80,210414,,,A*5B
$GPRMC,115146.00,A,2234.84500,N,11351.81480,E,10.26,86.69,210414,,,A*5B
$GPRMC,115147.00,A,2234.84560,N,11351.81780,E,10.80,76.50,210414,,,A*5B
$GPRMC,115148.00,A,2234.84680,N,11351.82140,E,11.34,66.75,210414,,,A*5B
$GPRMC,115149.00,A,2234.84860,N,11351.82440,E,11.88,56.97,210414,,,A*5B
$GPRMC,115150.00,A,2234.85100,N,11351.82740,E,12.42,48.64,210414,,,A*5B
$GPRMC,115151.00,A,2234.85340,N,11351.83040,E,13.50,42.95,210414,,,A*5B
$GPRMC,115152.00,A,2234.85700,N,11351.83340,E,15.66,40.49,210414,,,A*5B
$GPRMC,115153.00,A,2234.86060,N,11351.83640,E,16.74,40.16,210414,,,A*5B
$GPRMC,115154.00,A,2234.86420,N,11351.83940,E,16.20,41.33,210414,,,A*5B
$GPRMC,115155.00,A,2234.86780,N,11351.84300,E,17.28,41.79,210414,,,A*5B
$GPRMC,115156.00,A,2234.87200,N,11351.84720,E,18.90,40.88,210414,,,A*5B
$GPRMC,115157.00,A,2234.87620,N,11351.85080,E,19.98,40.67,210414,,,A*5B
$GPRMC,115158.00,A,2234.88040,N,11351.85500,E,21.60,41.25,210414,,,A*5B
$GPRMC,115159.00,A,2234.88520,N,11351.85980,E,22.14,41.54,210414,,,A*5B
$GPRMC,115200.00,A,2234.89000,N,11351.86400,E,22.14,40.79,210414,,,A*5B
$GPRMC,115201.00,A,2234.89480,N,11351.86820,E,21.06,40.66,210414,,,A*5B
$GPRMC,115202.00,A,2234.89900,N,11351.87240,E,20.52,40.50,210414,,,A*5B
$GPRMC,115203.00,A,2234.90380,N,11351.87600,E,20.52,40.95,210414,,,A*5B
$GPRMC,115204.00,A,2234.90800,N,11351.88020,E,20.52,40.95,210414,,,A*5B
$GPRMC,115205.00,A,2234.91220,N,11351.88440,E,19.98,40.65,210414,,,A*5B
$GPRMC,115206.00,A,2234.91640,N,11351.88860,E,19.44,40.49,210414,,,A*5B
$GPRMC,115207.00,A,2234.92060,N,11351.89220,E,18.90,40.56,210414,,,A*5B
$GPRMC,115208.00,A,2234.92480,N,11351.89580,E,17.82,41.19,210414,,,A*5B
$GPRMC,115209.00,A,2234.92840,N,11351.89940,E,16.74,41.35,210414,,,A*5B
$GPRMC,115210.00,A,2234.93140,N,11351.90240,E,14.58,41.58,210414,,,A*5B
$GPRMC,115211.00,A,2234.93440,N,11351.90480,E,12.42,41.60,210414,,,A*5B
$GPRMC,115212.00,A,2234.93680,N,11351.90720,E,11.34,41.65,210414,,,A*5B
$GPRMC,115213.00,A,2234.93860,N,11351.90960,E,9.18,42.37,210414,,,A*5B
$GPRMC,115214.00,A,2234.94040,N,11351.91140,E,8.10,42.24,210414,,,A*5B
$GPRMC,115215.00,A,2234.94220,N,11351.91260,E,6.48,41.95,210414,,,A*5B
$GPRMC,115216.00,A,2234.94340,N,11351.91380,E,4.32,41.77,210414,,,A*5B
$GPRMC,115217.00,A,2234.94400,N,11351.91440,E,2.70,41.80,210414,,,A*5B
$GPRMC,115218.00,A,2234.94460,N,11351.91500,E,1.62,41.57,210414,,,A*5B
$GPRMC,115310.00,A,2234.94520,N,11351.91620,E,2.16,41.49,210414,,,A*5B
$GPRMC,115311.00,A,2234.94580,N,11351.91680,E,2.70,42.93,210414,,,A*5B
$GPRMC,115312.00,A,2234.94700,N,11351.91740,E,5.40,43.80,210414,,,A*5B
$GPRMC,115313.00,A,2234.94820,N,11351.91920,E,8.64,44.10,210414,,,A*5B
$GPRMC,115314.00,A,2234.95060,N,11351.92160,E,10.80,44.56,210414,,,A*5B
$GPRMC,115315.00,A,2234.95240,N,11351.92340,E,10.26,44.66,210414,,,A*5B
$GPRMC,115316.00,A,2234.95480,N,11351.92580,E,10.26,44.95,210414,,,A*5B
$GPRMC,115317.00,A,2234.95660,N,11351.92820,E,11.34,45.09,210414,,,A*5B
$GPRMC,115318.00,A,2234.95900,N,11351.93060,E,12.42,46.19,210414,,,A*5B
$GPRMC,115319.00,A,2234.96200,N,11351.93360,E,14.04,46.05,210414,,,A*5B
$GPRMC,115320.00,A,2234.96500,N,11351.93720,E,15.12,45.93,210414,,,A*5B
$GPRMC,115321.00,A,2234.96800,N,11351.94080,E,15.66,46.01,210414,,,A*5B
$GPRMC,115322.00,A,2234.97100,N,11351.94380,E,14.58,46.55,210414,,,A*5B
$GPRMC,115323.00,A,2234.97340,N,11351.94680,E,13.50,47.54,210414,,,A*5B
$GPRMC,115324.00,A,2234.97580,N,11351.94980,E,12.42,48.13,210414,,,A*5B
$GPRMC,115325.00,A,2234.97820,N,11351.95220,E,11.34,48.28,210414,,,A*5B
$GPRMC,115326.00,A,2234.98000,N,11351.95520,E,10.80,48.72,210414,,,A*5B
$GPRMC,115327.00,A,2234.98240,N,11351.95700,E,9.72,48.82,210414,,,A*5B
$GPRMC,115328.00,A,2234.98360,N,11351.95940,E,8.10,49.01,210414,,,A*5B
$GPRMC,115329.00,A,2234.98480,N,11351.96120,E,7.02,49.35,210414,,,A*5B
$GPRMC,115330.00,A,2234.98660,N,11351.96240,E,6.48,50.66,210414,,,A*5B
$GPRMC,115331.00,A,2234.98780,N,11351.96420,E,6.48,48.49,210414,,,A*5B
$GPRMC,115332.00,A,2234.98900,N,11351.96600,E,8.10,48.53,210414,,,A*5B
$GPRMC,115333.00,A,2234.99080,N,11351.96780,E,9.18,49.90,210414,,,A*5B
$GPRMC,115334.00,A,2234.99260,N,11351.97020,E,10.26,49.95,210414,,,A*5B
$GPRMC,115335.00,A,2234.99500,N,11351.97260,E,11.88,46.59,210414,,,A*5B
$GPRMC,115336.00,A,2234.99800,N,11351.97560,E,14.58,44.34,210414,,,A*5B
$GPRMC,115337.00,A,2235.00100,N,11351.97920,E,17.28,44.43,210414,,,A*5B
$GPRMC,115338.00,A,2235.00460,N,11351.98280,E,17.28,46.69,210414,,,A*5B
$GPRMC,115339.00,A,2235.00760,N,11351.98700,E,17.82,49.70,210414,,,A*5B
$GPRMC,115340.00,A,2235.01120,N,11351.99180,E,19.98,51.77,210414,,,A*5B
$GPRMC,115341.00,A,2235.01480,N,11351.99660,E,22.14,52.09,210414,,,A*5B
$GPRMC,115342.00,A,2235.01900,N,11352.00260,E,24.30,52.90,210414,,,A*5B
$GPRMC,115343.00,A,2235.02320,N,11352.00860,E,25.38,52.44,210414,,,A*5B
$GPRMC,115344.00,A,2235.02740,N,11352.01460,E,26.46,53.00,210414,,,A*5B
$GPRMC,115345.00,A,2235.03220,N,11352.02120,E,28.08,52.24,210414,,,A*5B
$GPRMC,115346.00,A,2235.03760,N,11352.02840,E,29.16,52.91,210414,,,A*5B
$GPRMC,115347.00,A,2235.04240,N,11352.03560,E,29.70,52.68,210414,,,A*5B
$GPRMC,115348.00,A,2235.04720,N,11352.04220,E,29.16,52.53,210414,,,A*5B
$GPRMC,115349.00,A,2235.05200,N,11352.04940,E,28.62,52.15,210414,,,A*5B
$GPRMC,115350.00,A,2235.05740,N,11352.05600,E,28.62,51.98,210414,,,A*5B
$GPRMC,115351.00,A,2235.06220,N,11352.06320,E,29.16,52.27,210414,,,A*5B
$GPRMC,115352.00,A,2235.06700,N,11352.06980,E,29.16,52.65,210414,,,A*5B
$GPRMC,115353.00,A,2235.07180,N,11352.07700,E,28.62,51.34,210414,,,A*5B
$GPRMC,115354.00,A,2235.07720,N,11352.08360,E,28.08,51.87,210414,,,A*5B
$GPRMC,115355.00,A,2235.08200,N,11352.09020,E,27.54,51.97,210414,,,A*5B
$GPRMC,115356.00,A,2235.08680,N,11352.09680,E,27.00,52.11,210414,,,A*5B
$GPRMC,115357.00,A,2235.09100,N,11352.10340,E,27.00,51.63,210414,,,A*5B
$GPRMC,115358.00,A,2235.09640,N,11352.10940,E,27.54,50.08,210414,,,A*5B
$GPRMC,115359.00,A,2235.10120,N,11352.11600,E,27.54,49.85,210414,,,A*5B
$GPRMC,115400.00,A,2235.10600,N,11352.12260,E,27.54,49.76,210414,,,A*5B
$GPRMC,115401.00,A,2235.11140,N,11352.12920,E,28.08,50.78,210414,,,A*5B
$GPRMC,115402.00,A,2235.11620,N,11352.13580,E,28.62,51.33,210414,,,A*5B
$GPRMC,115403.00,A,2235.12160,N,11352.14300,E,29.70,51.59,210414,,,A*5B
$GPRMC,115404.00,A,2235.12640,N,11352.14960,E,30.24,51.35,210414,,,A*5B
$GPRMC,115405.00,A,2235.13180,N,11352.15680,E,30.24,51.20,210414,,,A*5B
$GPRMC,115406.00,A,2235.13720,N,11352.16400,E,30.78,51.20,210414,,,A*5B
$GPRMC,115407.00,A,2235.14260,N,11352.17180,E,30.78,51.50,210414,,,A*5B
$GPRMC,115408.00,A,2235.14800,N,11352.17900,E,30.24,51.93,210414,,,A*5B
$GPRMC,115409.00,A,2235.15340,N,11352.18620,E,30.78,51.79,210414,,,A*5B
$GPRMC,115410.00,A,2235.15880,N,11352.19340,E,30.78,51.54,210414,,,A*5B
$GPRMC,115411.00,A,2235.16420,N,11352.20060,E,31.32,51.14,210414,,,A*5B
$GPRMC,115412.00,A,2235.16960,N,11352.20780,E,30.78,51.00,210414,,,A*5B
$GPRMC,115413.00,A,2235.17500,N,11352.21500,E,30.24,51.27,210414,,,A*5B
$GPRMC,115414.00,A,2235.18040,N,11352.22220,E,29.16,51.49,210414,,,A*5B
$GPRMC,115415.00,A,2235.18520,N,11352.22880,E,28.62,51.19,210414,,,A*5B
$GPRMC,115416.00,A,2235.19000,N,11352.23540,E,28.08,51.14,210414,,,A*5B
$GPRMC,115417.00,A,2235.19540,N,11352.24200,E,28.08,51.22,210414,,,A*5B
$GPRMC,115418.00,A,2235.20020,N,11352.24860,E,27.54,51.45,210414,,,A*5B
$GPRMC,115419.00,A,2235.20500,N,11352.25520,E,27.54,51.45,210414,,,A*5B
$GPRMC,115420.00,A,2235.20980,N,11352.26180,E,27.00,51.46,210414,,,A*5B
$GPRMC,115421.00,A,2235.21460,N,11352.26780,E,27.00,51.25,210414,,,A*5B
$GPRMC,115422.00,A,2235.21880,N,11352.27440,E,26.46,51.93,210414,,,A*5B
$GPRMC,115423.00,A,2235.22360,N,11352.28100,E,26.46,52.71,210414,,,A*5B
$GPRMC,115424.00,A,2235.22780,N,11352.28700,E,25.92,51.52,210414,,,A*5B
$GPRMC,115425.00,A,2235.23260,N,11352.29300,E,25.92,50.28,210414,,,A*5B
$GPRMC,115426.00,A,2235.23740,N,11352.29900,E,26.46,49.76,210414,,,A*5B
$GPRMC,115427.00,A,2235.24220,N,11352.30500,E,26.46,49.50,210414,,,A*5B
$GPRMC,115428.00,A,2235.24700,N,11352.31160,E,27.54,48.91,210414,,,A*5B
$GPRMC,115429.00,A,2235.25240,N,11352.31760,E,28.62,48.49,210414,,,A*5B
$GPRMC,115430.00,A,2235.25780,N,11352.32420,E,29.16,49.26,210414,,,A*5B
$GPRMC,115431.00,A,2235.26320,N,11352.33140,E,28.62,50.41,210414,,,A*5B
$GPRMC,115432.00,A,2235.26800,N,11352.33800,E,28.08,51.14,210414,,,A*5B
$GPRMC,115433.00,A,2235.27280,N,11352.34400,E,27.00,51.20,210414,,,A*5B
$GPRMC,115434.00,A,2235.27760,N,11352.35060,E,25.92,50.57,210414,,,A*5B
$GPRMC,115435.00,A,2235.28180,N,11352.35600,E,24.30,49.58,210414,,,A*5B
$GPRMC,115436.00,A,2235.28660,N,11352.36140,E,23.22,47.49,210414,,,A*5B
$GPRMC,115437.00,A,2235.29080,N,11352.36620,E,21.60,42.20,210414,,,A*5B
$GPRMC,115438.00,A,2235.29560,N,11352.36980,E,19.98,33.08,210414,,,A*5B
$GPRMC,115439.00,A,2235.30040,N,11352.37220,E,19.44,22.76,210414,,,A*5B
$GPRMC,115440.00,A,2235.30580,N,11352.37400,E,18.90,12.26,210414,,,A*5B
$GPRMC,115441.00,A,2235.31060,N,11352.37400,E,18.36,2.70,210414,,,A*5B
$GPRMC,115442.00,A,2235.31600,N,11352.37400,E,18.90,352.57,210414,,,A*5B
$GPRMC,115443.00,A,2235.32140,N,11352.37220,E,19.44,343.06,210414,,,A*5B
$GPRMC,115444.00,A,2235.32620,N,11352.36980,E,19.44,332.31,210414,,,A*5B
$GPRMC,115445.00,A,2235.33100,N,11352.36680,E,20.52,322.12,210414,,,A*5B
$GPRMC,115446.00,A,2235.33520,N,11352.36200,E,21.06,310.93,210414,,,A*5B
$GPRMC,115447.00,A,2235.33820,N,11352.35660,E,21.06,298.99,210414,,,A*5B
$GPRMC,115448.00,A,2235.34060,N,11352.35060,E,21.60,287.22,210414,,,A*5B
$GPRMC,115449.00,A,2235.34180,N,11352.34400,E,22.68,278.34,210414,,,A*5B
$GPRMC,115450.00,A,2235.34240,N,11352.33680,E,24.30,275.32,210414,,,A*5B
$GPRMC,115451.00,A,2235.34300,N,11352.32900,E,25.38,274.98,210414,,,A*5B
$GPRMC,115452.00,A,2235.34360,N,11352.32120,E,26.46,275.60,210414,,,A*5B
$GPRMC,115453.00,A,2235.34480,N,11352.31280,E,27.00,276.19,210414,,,A*5B
$GPRMC,115454.00,A,2235.34540,N,11352.30500,E,26.46,276.52,210414,,,A*5B
$GPRMC,115455.00,A,2235.34600,N,11352.29660,E,27.00,275.82,210414,,,A*5B
$GPRMC,115456.00,A,2235.34720,N,11352.28880,E,26.46,276.44,210414,,,A*5B
$GPRMC,115457.00,A,2235.34780,N,11352.28040,E,26.46,278.39,210414,,,A*5B
$GPRMC,115458.00,A,2235.34960,N,11352.27260,E,26.46,284.17,210414,,,A*5B
$GPRMC,115459.00,A,2235.35200,N,11352.26540,E,25.38,291.01,210414,,,A*5B
$GPRMC,115500.00,A,2235.35500,N,11352.25880,E,23.22,299.46,210414,,,A*5B
$GPRMC,115501.00,A,2235.35860,N,11352.25340,E,21.60,306.27,210414,,,A*5B
$GPRMC,115502.00,A,2235.36220,N,11352.24860,E,20.52,312.37,210414,,,A*5B
$GPRMC,115503.00,A,2235.36640,N,11352.24440,E,19.98,317.44,210414,,,A*5B
$GPRMC,115504.00,A,2235.37060,N,11352.24020,E,19.44,321.23,210414,,,A*5B
$GPRMC,115505.00,A,2235.37480,N,11352.23660,E,19.44,320.74,210414,,,A*5B
$GPRMC,115506.00,A,2235.37960,N,11352.23240,E,21.06,320.23,210414,,,A*5B
$GPRMC,115507.00,A,2235.38440,N,11352.22820,E,21.60,320.89,210414,,,A*5B
$GPRMC,115508.00,A,2235.38920,N,11352.22460,E,22.14,322.34,210414,,,A*5B
$GPRMC,115509.00,A,2235.39400,N,11352.22040,E,23.22,322.63,210414,,,A*5B
$GPRMC,115510.00,A,2235.39940,N,11352.21560,E,23.22,323.12,210414,,,A*5B
$GPRMC,115511.00,A,2235.40480,N,11352.21140,E,23.76,323.98,210414,,,A*5B
$GPRMC,115512.00,A,2235.41020,N,11352.20780,E,24.30,325.00,210414,,,A*5B
$GPRMC,115513.00,A,2235.41560,N,11352.20360,E,24.30,326.19,210414,,,A*5B
$GPRMC,115514.00,A,2235.42160,N,11352.19940,E,23.76,326.79,210414,,,A*5B
$GPRMC,115515.00,A,2235.42700,N,11352.19580,E,23.22,328.12,210414,,,A*5B
$GPRMC,115516.00,A,2235.43240,N,11352.19220,E,22.68,329.43,210414,,,A*5B
$GPRMC,115517.00,A,2235.43780,N,11352.18860,E,22.68,329.24,210414,,,A*5B
$GPRMC,115518.00,A,2235.44320,N,11352.18500,E,21.60,329.18,210414,,,A*5B
$GPRMC,115519.00,A,2235.44860,N,11352.18200,E,21.60,329.60,210414,,,A*5B
$GPRMC,115520.00,A,2235.45400,N,11352.17840,E,21.60,330.04,210414,,,A*5B
$GPRMC,115521.00,A,2235.45940,N,11352.17480,E,22.14,330.33,210414,,,A*5B
$GPRMC,115522.00,A,2235.46480,N,11352.17180,E,22.14,331.59,210414,,,A*5B
$GPRMC,115523.00,A,2235.47020,N,11352.16880,E,22.68,331.95,210414,,,A*5B
$GPRMC,115524.00,A,2235.47560,N,11352.16520,E,22.68,331.79,210414,,,A*5B
$GPRMC,115525.00,A,2235.48160,N,11352.16220,E,23.22,333.38,210414,,,A*5B
$GPRMC,115526.00,A,2235.48700,N,11352.15920,E,23.22,331.80,210414,,,A*5B
$GPRMC,115527.00,A,2235.49300,N,11352.15560,E,23.22,333.47,210414,,,A*5B
$GPRMC,115528.00,A,2235.49900,N,11352.15260,E,23.22,333.65,210414,,,A*5B
$GPRMC,115529.00,A,2235.50500,N,11352.14960,E,23.76,333.62,210414,,,A*5B
$GPRMC,115530.00,A,2235.51100,N,11352.14600,E,23.76,333.64,210414,,,A*5B
$GPRMC,115531.00,A,2235.51700,N,11352.14300,E,23.76,334.16,210414,,,A*5B
$GPRMC,115532.00,A,2235.52300,N,11352.14000,E,23.22,334.08,210414,,,A*5B
$GPRMC,115533.00,A,2235.52900,N,11352.13700,E,23.22,334.05,210414,,,A*5B
$GPRMC,115534.00,A,2235.53440,N,11352.13400,E,22.14,333.63,210414,,,A*5B
$GPRMC,115535.00,A,2235.54040,N,11352.13100,E,22.14,334.33,210414,,,A*5B
$GPRMC,115536.00,A,2235.54580,N,11352.12740,E,22.14,333.19,210414,,,A*5B
$GPRMC,115537.00,A,2235.55120,N,11352.12440,E,22.68,333.62,210414,,,A*5B
$GPRMC,115538.00,A,2235.55720,N,11352.12140,E,22.14,333.29,210414,,,A*5B
$GPRMC,115539.00,A,2235.56260,N,11352.11840,E,21.60,332.63,210414,,,A*5B
$GPRMC,115540.00,A,2235.56800,N,11352.11600,E,22.14,333.45,210414,,,A*5B
$GPRMC,115541.00,A,2235.57400,N,11352.11240,E,23.22,333.46,210414,,,A*5B
$GPRMC,115542.00,A,2235.58000,N,11352.10940,E,24.30,334.53,210414,,,A*5B
$GPRMC,115543.00,A,2235.58660,N,11352.10580,E,25.38,333.68,210414,,,A*5B
$GPRMC,115544.00,A,2235.59320,N,11352.10220,E,26.46,332.81,210414,,,A*5B
$GPRMC,115545.00,A,2235.59980,N,11352.09860,E,27.54,333.49,210414,,,A*5B
$GPRMC,115546.00,A,2235.60700,N,11352.09500,E,27.54,332.35,210414,,,A*5B
$GPRMC,115547.00,A,2235.61360,N,11352.09080,E,27.54,332.48,210414,,,A*5B
$GPRMC,115548.00,A,2235.62080,N,11352.08720,E,27.54,333.07,210414,,,A*5B
$GPRMC,115549.00,A,2235.62740,N,11352.08360,E,26.46,332.88,210414,,,A*5B
$GPRMC,115550.00,A,2235.63400,N,11352.08000,E,25.92,332.95,210414,,,A*5B
$GPRMC,115551.00,A,2235.64060,N,11352.07640,E,25.92,332.36,210414,,,A*5B
$GPRMC,115552.00,A,2235.64660,N,11352.07280,E,25.38,332.91,210414,,,A*5B
$GPRMC,115553.00,A,2235.65320,N,11352.06920,E,25.92,332.10,210414,,,A*5B
$GPRMC,115554.00,A,2235.65980,N,11352.06560,E,25.92,332.19,210414,,,A*5B
$GPRMC,115555.00,A,2235.66640,N,11352.06140,E,25.92,331.36,210414,,,A*5B
$GPRMC,115556.00,A,2235.67300,N,11352.05780,E,27.54,333.02,210414,,,A*5B
$GPRMC,115557.00,A,2235.67960,N,11352.05420,E,27.00,332.02,210414,,,A*5B
$GPRMC,115558.00,A,2235.68680,N,11352.05000,E,27.54,331.23,210414,,,A*5B
$GPRMC,115559.00,A,2235.69340,N,11352.04580,E,28.62,330.70,210414,,,A*5B
$GPRMC,115600.00,A,2235.70060,N,11352.04160,E,28.62,330.70,210414,,,A*5B
$GPRMC,115601.00,A,2235.70720,N,11352.03800,E,28.62,330.75,210414,,,A*5B
$GPRMC,115602.00,A,2235.71440,N,11352.03320,E,28.62,330.53,210414,,,A*5B
$GPRMC,115603.00,A,2235.72160,N,11352.02900,E,28.62,330.16,210414,,,A*5B
$GPRMC,115604.00,A,2235.72820,N,11352.02480,E,28.62,329.23,210414,,,A*5B
$GPRMC,115605.00,A,2235.73540,N,11352.02000,E,29.16,328.30,210414,,,A*5B
$GPRMC,115606.00,A,2235.74260,N,11352.01520,E,29.70,328.53,210414,,,A*5B
$GPRMC,115607.00,A,2235.74980,N,11352.01160,E,29.16,331.72,210414,,,A*5B
$GPRMC,115608.00,A,2235.75700,N,11352.00680,E,29.16,330.17,210414,,,A*5B
$GPRMC,115609.00,A,2235.76420,N,11352.00260,E,29.16,331.47,210414,,,A*5B
$GPRMC,115610.00,A,2235.77080,N,11351.99780,E,29.70,327.25,210414,,,A*5B
$GPRMC,115611.00,A,2235.77800,N,11351.99360,E,30.24,329.24,210414,,,A*5B
$GPRMC,115612.00,A,2235.78520,N,11351.98820,E,30.24,328.05,210414,,,A*5B
$GPRMC,115613.00,A,2235.79240,N,11351.98340,E,30.78,328.64,210414,,,A*5B
$GPRMC,115614.00,A,2235.79960,N,11351.97860,E,30.78,328.55,210414,,,A*5B
$GPRMC,115615.00,A,2235.80680,N,11351.97380,E,30.78,328.06,210414,,,A*5B
$GPRMC,115616.00,A,2235.81460,N,11351.96900,E,31.32,328.54,210414,,,A*5B
$GPRMC,115617.00,A,2235.82180,N,11351.96420,E,31.86,328.58,210414,,,A*5B
$GPRMC,115618.00,A,2235.82960,N,11351.95880,E,31.86,329.05,210414,,,A*5B
$GPRMC,115619.00,A,2235.83740,N,11351.95400,E,31.32,328.94,210414,,,A*5B
$GPRMC,115620.00,A,2235.84460,N,11351.94920,E,31.32,328.26,210414,,,A*5B
$GPRMC,115621.00,A,2235.85240,N,11351.94380,E,31.32,327.01,210414,,,A*5B
$GPRMC,115622.00,A,2235.85960,N,11351.93900,E,31.32,327.09,210414,,,A*5B
$GPRMC,115623.00,A,2235.86680,N,11351.93360,E,30.78,327.89,210414,,,A*5B
$GPRMC,115624.00,A,2235.87400,N,11351.92940,E,30.78,329.21,210414,,,A*5B
$GPRMC,115625.00,A,2235.88180,N,11351.92460,E,30.24,328.47,210414,,,A*5B
$GPRMC,115626.00,A,2235.88840,N,11351.91980,E,29.70,327.96,210414,,,A*5B
$GPRMC,115627.00,A,2235.89560,N,11351.91500,E,29.70,329.55,210414,,,A*5B
$GPRMC,115628.00,A,2235.90280,N,11351.91080,E,29.16,328.84,210414,,,A*5B
$GPRMC,115629.00,A,2235.91000,N,11351.90600,E,28.62,328.84,210414,,,A*5B
$GPRMC,115630.00,A,2235.91660,N,11351.90180,E,28.08,329.07,210414,,,A*5B
$GPRMC,115631.00,A,2235.92380,N,11351.89760,E,28.08,329.57,210414,,,A*5B
$GPRMC,115632.00,A,2235.93040,N,11351.89280,E,27.54,328.47,210414,,,A*5B
$GPRMC,115633.00,A,2235.93700,N,11351.88860,E,27.00,328.74,210414,,,A*5B
$GPRMC,115634.00,A,2235.94300,N,11351.88440,E,25.92,325.28,210414,,,A*5B
$GPRMC,115635.00,A,2235.94900,N,11351.88020,E,25.92,326.76,210414,,,A*5B
$GPRMC,115636.00,A,2235.95500,N,11351.87600,E,25.38,328.21,210414,,,A*5B
$GPRMC,115637.00,A,2235.96100,N,11351.87180,E,24.84,328.29,210414,,,A*5B
$GPRMC,115638.00,A,2235.96700,N,11351.86820,E,24.84,328.52,210414,,,A*5B
$GPRMC,115639.00,A,2235.97300,N,11351.86400,E,24.84,328.73,210414,,,A*5B
$GPRMC,115640.00,A,2235.97900,N,11351.85980,E,25.38,328.12,210414,,,A*5B
$GPRMC,115641.00,A,2235.98560,N,11351.85620,E,25.38,328.42,210414,,,A*5B
$GPRMC,115642.00,A,2235.99160,N,11351.85200,E,25.92,328.06,210414,,,A*5B
$GPRMC,115643.00,A,2235.99820,N,11351.84780,E,26.46,328.16,210414,,,A*5B
$GPRMC,115644.00,A,2236.00420,N,11351.84360,E,26.46,328.40,210414,,,A*5B
$GPRMC,115645.00,A,2236.01080,N,11351.84000,E,27.54,329.26,210414,,,A*5B
$GPRMC,115646.00,A,2236.01740,N,11351.83520,E,28.08,328.54,210414,,,A*5B
$GPRMC,115647.00,A,2236.02460,N,11351.83100,E,28.62,328.46,210414,,,A*5B
$GPRMC,115648.00,A,2236.03120,N,11351.82620,E,28.62,328.15,210414,,,A*5B
$GPRMC,115649.00,A,2236.03780,N,11351.82200,E,28.62,328.16,210414,,,A*5B
$GPRMC,115650.00,A,2236.04500,N,11351.81720,E,28.62,328.34,210414,,,A*5B
$GPRMC,115651.00,A,2236.05160,N,11351.81240,E,29.16,327.98,210414,,,A*5B
$GPRMC,115652.00,A,2236.05880,N,11351.80820,E,28.62,328.97,210414,,,A*5B
$GPRMC,115653.00,A,2236.06600,N,11351.80340,E,29.16,329.49,210414,,,A*5B
$GPRMC,115654.00,A,2236.07320,N,11351.79920,E,30.24,328.99,210414,,,A*5B
$GPRMC,115655.00,A,2236.08040,N,11351.79440,E,30.78,328.51,210414,,,A*5B
$GPRMC,115656.00,A,2236.08760,N,11351.78960,E,31.32,328.32,210414,,,A*5B
$GPRMC,115657.00,A,2236.09540,N,11351.78480,E,31.32,328.67,210414,,,A*5B
$GPRMC,115658.00,A,2236.10260,N,11351.78000,E,31.86,328.60,210414,,,A*5B
$GPRMC,115659.00,A,2236.11040,N,11351.77520,E,31.86,328.68,210414,,,A*5B
$GPRMC,115700.00,A,2236.11760,N,11351.76980,E,30.78,328.52,210414,,,A*5B
$GPRMC,115701.00,A,2236.12540,N,11351.76500,E,30.24,328.23,210414,,,A*5B
$GPRMC,115702.00,A,2236.13260,N,11351.76080,E,29.16,328.34,210414,,,A*5B
$GPRMC,115703.00,A,2236.13920,N,11351.75600,E,28.62,328.37,210414,,,A*5B
$GPRMC,115704.00,A,2236.14580,N,11351.75180,E,27.54,328.77,210414,,,A*5B
$GPRMC,115705.00,A,2236.15240,N,11351.74760,E,26.46,328.50,210414,,,A*5B
$GPRMC,115706.00,A,2236.15840,N,11351.74340,E,25.92,328.92,210414,,,A*5B
$GPRMC,115707.00,A,2236.16440,N,11351.73920,E,25.38,328.96,210414,,,A*5B
$GPRMC,115708.00,A,2236.17100,N,11351.73560,E,25.38,329.27,210414,,,A*5B
$GPRMC,115709.00,A,2236.17700,N,11351.73140,E,25.38,329.01,210414,,,A*5B
$GPRMC,115710.00,A,2236.18300,N,11351.72780,E,24.84,328.66,210414,,,A*5B
$GPRMC,115711.00,A,2236.18900,N,11351.72360,E,24.30,328.54,210414,,,A*5B
$GPRMC,115712.00,A,2236.19440,N,11351.72000,E,23.76,329.36,210414,,,A*5B
$GPRMC,115713.00,A,2236.19980,N,11351.71640,E,22.68,328.69,210414,,,A*5B
$GPRMC,115714.00,A,2236.20520,N,11351.71280,E,22.14,328.78,210414,,,A*5B
$GPRMC,115715.00,A,2236.21060,N,11351.70920,E,21.60,329.19,210414,,,A*5B
$GPRMC,115716.00,A,2236.21600,N,11351.70560,E,21.06,329.06,210414,,,A*5B
$GPRMC,115717.00,A,2236.22080,N,11351.70260,E,20.52,327.77,210414,,,A*5B
$GPRMC,115718.00,A,2236.22560,N,11351.69900,E,20.52,328.11,210414,,,A*5B
$GPRMC,115719.00,A,2236.23040,N,11351.69600,E,20.52,328.25,210414,,,A*5B
$GPRMC,115720.00,A,2236.23520,N,11351.69300,E,21.06,328.83,210414,,,A*5B
$GPRMC,115721.00,A,2236.24120,N,11351.68940,E,22.14,328.98,210414,,,A*5B
$GPRMC,115722.00,A,2236.24660,N,11351.68580,E,22.68,328.46,210414,,,A*5B
$GPRMC,115723.00,A,2236.25200,N,11351.68220,E,23.22,328.08,210414,,,A*5B
$GPRMC,115724.00,A,2236.25740,N,11351.67860,E,23.22,327.75,210414,,,A*5B
$GPRMC,115725.00,A,2236.26340,N,11351.67440,E,23.76,327.87,210414,,,A*5B
$GPRMC,115726.00,A,2236.26880,N,11351.67080,E,24.30,327.74,210414,,,A*5B
$GPRMC,115727.00,A,2236.27480,N,11351.66660,E,24.30,326.90,210414,,,A*5B
$GPRMC,115728.00,A,2236.28080,N,11351.66240,E,25.92,328.04,210414,,,A*5B
$GPRMC,115729.00,A,2236.28680,N,11351.65820,E,25.92,324.84,210414,,,A*5B
$GPRMC,115730.00,A,2236.29220,N,11351.65340,E,25.92,321.17,210414,,,A*5B
$GPRMC,115731.00,A,2236.29820,N,11351.64860,E,25.92,321.35,210414,,,A*5B
$GPRMC,115732.00,A,2236.30420,N,11351.64380,E,26.46,323.75,210414,,,A*5B
$GPRMC,115733.00,A,2236.31020,N,11351.63900,E,26.46,322.85,210414,,,A*5B
$GPRMC,115734.00,A,2236.31620,N,11351.63420,E,25.92,321.70,210414,,,A*5B
$GPRMC,115735.00,A,2236.32160,N,11351.62940,E,25.92,321.33,210414,,,A*5B
$GPRMC,115736.00,A,2236.32760,N,11351.62400,E,25.92,321.10,210414,,,A*5B
$GPRMC,115737.00,A,2236.33300,N,11351.61920,E,26.46,321.10,210414,,,A*5B
$GPRMC,115738.00,A,2236.33900,N,11351.61440,E,26.46,320.67,210414,,,A*5B
$GPRMC,115739.00,A,2236.34500,N,11351.60900,E,26.46,320.24,210414,,,A*5B
$GPRMC,115740.00,A,2236.35040,N,11351.60420,E,25.92,318.33,210414,,,A*5B
$GPRMC,115741.00,A,2236.35580,N,11351.59880,E,25.92,317.61,210414,,,A*5B
$GPRMC,115742.00,A,2236.36120,N,11351.59340,E,25.92,317.61,210414,,,A*5B
$GPRMC,115743.00,A,2236.36660,N,11351.58800,E,27.00,317.12,210414,,,A*5B
$GPRMC,115744.00,A,2236.37200,N,11351.58200,E,27.00,315.96,210414,,,A*5B
$GPRMC,115745.00,A,2236.37740,N,11351.57660,E,26.46,316.40,210414,,,A*5B
$GPRMC,115746.00,A,2236.38340,N,11351.57120,E,27.00,316.90,210414,,,A*5B
$GPRMC,115747.00,A,2236.38880,N,11351.56520,E,26.46,317.73,210414,,,A*5B
$GPRMC,115748.00,A,2236.39420,N,11351.55980,E,26.46,315.96,210414,,,A*5B
$GPRMC,115749.00,A,2236.39960,N,11351.55440,E,25.92,316.63,210414,,,A*5B
$GPRMC,115750.00,A,2236.40500,N,11351.54900,E,25.92,317.81,210414,,,A*5B
$GPRMC,115751.00,A,2236.40980,N,11351.54360,E,24.84,316.86,210414,,,A*5B
$GPRMC,115752.00,A,2236.41520,N,11351.53880,E,24.30,317.14,210414,,,A*5B
$GPRMC,115753.00,A,2236.42000,N,11351.53400,E,23.76,316.75,210414,,,A*5B
$GPRMC,115754.00,A,2236.42420,N,11351.52920,E,22.68,316.35,210414,,,A*5B
$GPRMC,115755.00,A,2236.42900,N,11351.52440,E,22.14,316.65,210414,,,A*5B
$GPRMC,115756.00,A,2236.43380,N,11351.51960,E,22.68,315.71,210414,,,A*5B
$GPRMC,115757.00,A,2236.43860,N,11351.51480,E,22.68,316.01,210414,,,A*5B
$GPRMC,115758.00,A,2236.44280,N,11351.51000,E,23.22,315.97,210414,,,A*5B
$GPRMC,115759.00,A,2236.44760,N,11351.50520,E,22.68,315.77,210414,,,A*5B
$GPRMC,115800.00,A,2236.45240,N,11351.50040,E,22.68,316.09,210414,,,A*5B
$GPRMC,115801.00,A,2236.45660,N,11351.49560,E,22.68,316.78,210414,,,A*5B
$GPRMC,115802.00,A,2236.46140,N,11351.49080,E,22.68,317.37,210414,,,A*5B
$GPRMC,115803.00,A,2236.46620,N,11351.48600,E,23.22,317.35,210414,,,A*5B
$GPRMC,115804.00,A,2236.47100,N,11351.48120,E,23.22,317.44,210414,,,A*5B
$GPRMC,115805.00,A,2236.47580,N,11351.47640,E,23.22,317.19,210414,,,A*5B
$GPRMC,115806.00,A,2236.48060,N,11351.47160,E,23.22,316.84,210414,,,A*5B
$GPRMC,115807.00,A,2236.48540,N,11351.46680,E,23.22,317.33,210414,,,A*5B
$GPRMC,115808.00,A,2236.49020,N,11351.46200,E,23.22,317.84,210414,,,A*5B
$GPRMC,115809.00,A,2236.49500,N,11351.45720,E,23.76,316.56,210414,,,A*5B
$GPRMC,115810.00,A,2236.49980,N,11351.45240,E,24.84,317.99,210414,,,A*5B
$GPRMC,115811.00,A,2236.50520,N,11351.44760,E,25.38,319.10,210414,,,A*5B
$GPRMC,115812.00,A,2236.51060,N,11351.44220,E,25.38,320.36,210414,,,A*5B
$GPRMC,115813.00,A,2236.51660,N,11351.43800,E,24.84,322.47,210414,,,A*5B
$GPRMC,115814.00,A,2236.52200,N,11351.43320,E,24.30,321.95,210414,,,A*5B
$GPRMC,115815.00,A,2236.52680,N,11351.42900,E,22.14,322.10,210414,,,A*5B
$GPRMC,115816.00,A,2236.53160,N,11351.42540,E,21.60,325.45,210414,,,A*5B
$GPRMC,115817.00,A,2236.53640,N,11351.42120,E,20.52,321.59,210414,,,A*5B
$GPRMC,115818.00,A,2236.54120,N,11351.41760,E,21.06,322.32,210414,,,A*5B
$GPRMC,115819.00,A,2236.54600,N,11351.41340,E,23.22,322.60,210414,,,A*5B
$GPRMC,115820.00,A,2236.55140,N,11351.40860,E,24.30,323.06,210414,,,A*5B
$GPRMC,115821.00,A,2236.55680,N,11351.40440,E,25.38,324.10,210414,,,A*5B
$GPRMC,115822.00,A,2236.56280,N,11351.40020,E,25.38,325.26,210414,,,A*5B
$GPRMC,115823.00,A,2236.56880,N,11351.39540,E,24.84,325.59,210414,,,A*5B
$GPRMC,115824.00,A,2236.57420,N,11351.39180,E,23.76,325.94,210414,,,A*5B
$GPRMC,115825.00,A,2236.57960,N,11351.38760,E,23.22,327.55,210414,,,A*5B
$GPRMC,115826.00,A,2236.58500,N,11351.38400,E,22.68,328.31,210414,,,A*5B
$GPRMC,115827.00,A,2236.59040,N,11351.38040,E,22.14,328.41,210414,,,A*5B
$GPRMC,115828.00,A,2236.59580,N,11351.37740,E,19.98,327.67,210414,,,A*5B
$GPRMC,115829.00,A,2236.60000,N,11351.37380,E,18.90,328.26,210414,,,A*5B
$GPRMC,115830.00,A,2236.60480,N,11351.37140,E,18.36,328.61,210414,,,A*5B
$GPRMC,115831.00,A,2236.60960,N,11351.36840,E,19.44,330.92,210414,,,A*5B
$GPRMC,115832.00,A,2236.61440,N,11351.36540,E,21.60,331.45,210414,,,A*5B
$GPRMC,115833.00,A,2236.62040,N,11351.36180,E,23.76,331.05,210414,,,A*5B
$GPRMC,115834.00,A,2236.62700,N,11351.35820,E,25.92,331.73,210414,,,A*5B
$GPRMC,115835.00,A,2236.63360,N,11351.35460,E,27.00,332.72,210414,,,A*5B
$GPRMC,115836.00,A,2236.64020,N,11351.35100,E,28.62,332.92,210414,,,A*5B
$GPRMC,115837.00,A,2236.64740,N,11351.34680,E,28.62,333.37,210414,,,A*5B
$GPRMC,115838.00,A,2236.65460,N,11351.34320,E,28.62,334.36,210414,,,A*5B
$GPRMC,115839.00,A,2236.66240,N,11351.33960,E,28.62,335.18,210414,,,A*5B
$GPRMC,115840.00,A,2236.66960,N,11351.33600,E,28.08,335.45,210414,,,A*5B
$GPRMC,115841.00,A,2236.67680,N,11351.33240,E,28.08,335.56,210414,,,A*5B
$GPRMC,115842.00,A,2236.68400,N,11351.32880,E,28.62,335.82,210414,,,A*5B
$GPRMC,115843.00,A,2236.69120,N,11351.32580,E,28.62,335.61,210414,,,A*5B
$GPRMC,115844.00,A,2236.69900,N,11351.32220,E,29.16,335.70,210414,,,A*5B
$GPRMC,115845.00,A,2236.70620,N,11351.31860,E,29.16,336.18,210414,,,A*5B
$GPRMC,115846.00,A,2236.71400,N,11351.31500,E,29.16,335.51,210414,,,A*5B
$GPRMC,115847.00,A,2236.72120,N,11351.31140,E,28.62,335.41,210414,,,A*5B
$GPRMC,115848.00,A,2236.72900,N,11351.30840,E,29.16,341.28,210414,,,A*5B
$GPRMC,115849.00,A,2236.73680,N,11351.30480,E,29.16,335.94,210414,,,A*5B
$GPRMC,115850.00,A,2236.74400,N,11351.30120,E,29.70,335.74,210414,,,A*5B
$GPRMC,115851.00,A,2236.75180,N,11351.29760,E,29.70,335.91,210414,,,A*5B
$GPRMC,115852.00,A,2236.75960,N,11351.29400,E,29.16,335.84,210414,,,A*5B
$GPRMC,115853.00,A,2236.76680,N,11351.29040,E,29.70,336.49,210414,,,A*5B
$GPRMC,115854.00,A,2236.77460,N,11351.28680,E,29.70,337.26,210414,,,A*5B
$GPRMC,115855.00,A,2236.78240,N,11351.28320,E,29.70,336.83,210414,,,A*5B
$GPRMC,115856.00,A,2236.78960,N,11351.27960,E,29.70,336.70,210414,,,A*5B
$GPRMC,115857.00,A,2236.79740,N,11351.27600,E,30.24,336.85,210414,,,A*5B
$GPRMC,115858.00,A,2236.80520,N,11351.27240,E,29.70,336.77,210414,,,A*5B
$GPRMC,115859.00,A,2236.81300,N,11351.26880,E,30.24,336.30,210414,,,A*5B
$GPRMC,115900.00,A,2236.82080,N,11351.26460,E,29.70,335.65,210414,,,A*5B
$GPRMC,115901.00,A,2236.82860,N,11351.26100,E,29.70,335.61,210414,,,A*5B
$GPRMC,115902.00,A,2236.83580,N,11351.25740,E,28.62,335.65,210414,,,A*5B
$GPRMC,115903.00,A,2236.84300,N,11351.25380,E,28.62,335.55,210414,,,A*5B
$GPRMC,115904.00,A,2236.85020,N,11351.25020,E,27.54,335.84,210414,,,A*5B
$GPRMC,115905.00,A,2236.85740,N,11351.24660,E,27.00,335.68,210414,,,A*5B
$GPRMC,115906.00,A,2236.86400,N,11351.24360,E,25.92,335.04,210414,,,A*5B
$GPRMC,115907.00,A,2236.87060,N,11351.24000,E,25.92,335.74,210414,,,A*5B
$GPRMC,115908.00,A,2236.87720,N,11351.23700,E,25.38,336.37,210414,,,A*5B
$GPRMC,115909.00,A,2236.88380,N,11351.23400,E,24.30,336.73,210414,,,A*5B
$GPRMC,115910.00,A,2236.88980,N,11351.23100,E,23.76,336.58,210414,,,A*5B
$GPRMC,115911.00,A,2236.89580,N,11351.22800,E,24.30,336.17,210414,,,A*5B
$GPRMC,115912.00,A,2236.90240,N,11351.22500,E,24.30,335.75,210414,,,A*5B
$GPRMC,115913.00,A,2236.90840,N,11351.22200,E,24.30,335.64,210414,,,A*5B
$GPRMC,115914.00,A,2236.91500,N,11351.21900,E,24.84,335.84,210414,,,A*5B
$GPRMC,115915.00,A,2236.92100,N,11351.21600,E,24.84,336.88,210414,,,A*5B
$GPRMC,115916.00,A,2236.92760,N,11351.21300,E,24.30,335.81,210414,,,A*5B
$GPRMC,115917.00,A,2236.93360,N,11351.20940,E,25.92,334.19,210414,,,A*5B
$GPRMC,115918.00,A,2236.94080,N,11351.20580,E,27.00,334.48,210414,,,A*5B
$GPRMC,115919.00,A,2236.94740,N,11351.20280,E,26.46,334.81,210414,,,A*5B
$GPRMC,115920.00,A,2236.95400,N,11351.19920,E,25.38,334.54,210414,,,A*5B
$GPRMC,115921.00,A,2236.96000,N,11351.19620,E,24.84,334.00,210414,,,A*5B
$GPRMC,115922.00,A,2236.96660,N,11351.19260,E,24.84,333.51,210414,,,A*5B
$GPRMC,115923.00,A,2236.97260,N,11351.18900,E,24.84,332.30,210414,,,A*5B
$GPRMC,115924.00,A,2236.97860,N,11351.18540,E,24.84,332.22,210414,,,A*5B
$GPRMC,115925.00,A,2236.98460,N,11351.18180,E,24.84,330.88,210414,,,A*5B
$GPRMC,115926.00,A,2236.99060,N,11351.17820,E,24.84,330.73,210414,,,A*5B
$GPRMC,115927.00,A,2236.99660,N,11351.17460,E,24.30,331.35,210414,,,A*5B
$GPRMC,115928.00,A,2237.00260,N,11351.17100,E,23.22,331.58,210414,,,A*5B
$GPRMC,115929.00,A,2237.00800,N,11351.16740,E,21.60,331.10,210414,,,A*5B
$GPRMC,115930.00,A,2237.01340,N,11351.16440,E,22.14,333.02,210414,,,A*5B
$GPRMC,115931.00,A,2237.01880,N,11351.16140,E,21.06,331.57,210414,,,A*5B
$GPRMC,115932.00,A,2237.02360,N,11351.15840,E,21.06,330.56,210414,,,A*5B
$GPRMC,115933.00,A,2237.02900,N,11351.15480,E,20.52,330.49,210414,,,A*5B
$GPRMC,115934.00,A,2237.03380,N,11351.15180,E,19.98,330.40,210414,,,A*5B
$GPRMC,115935.00,A,2237.03860,N,11351.14880,E,18.90,330.08,210414,,,A*5B
$GPRMC,115936.00,A,2237.04340,N,11351.14580,E,18.36,329.33,210414,,,A*5B
$GPRMC,115937.00,A,2237.04760,N,11351.14280,E,17.82,329.25,210414,,,A*5B
$GPRMC,115938.00,A,2237.05180,N,11351.14040,E,17.28,329.53,210414,,,A*5B
$GPRMC,115939.00,A,2237.05600,N,11351.13800,E,16.20,328.55,210414,,,A*5B
$GPRMC,115940.00,A,2237.05960,N,11351.13500,E,15.66,329.17,210414,,,A*5B
$GPRMC,115941.00,A,2237.06320,N,11351.13260,E,14.58,329.08,210414,,,A*5B
$GPRMC,115942.00,A,2237.06680,N,11351.13080,E,13.50,330.29,210414,,,A*5B
$GPRMC,115943.00,A,2237.06980,N,11351.12900,E,12.96,336.37,210414,,,A*5B
$GPRMC,115944.00,A,2237.07400,N,11351.12780,E,14.04,342.18,210414,,,A*5B
$GPRMC,115945.00,A,2237.07760,N,11351.12660,E,15.12,347.13,210414,,,A*5B
$GPRMC,115946.00,A,2237.08240,N,11351.12540,E,15.66,346.04,210414,,,A*5B
$GPRMC,115947.00,A,2237.08660,N,11351.12420,E,15.66,341.53,210414,,,A*5B
$GPRMC,115948.00,A,2237.09020,N,11351.12240,E,15.12,337.12,210414,,,A*5B
$GPRMC,115949.00,A,2237.09440,N,11351.12000,E,16.20,328.28,210414,,,A*5B
$GPRMC,115950.00,A,2237.09740,N,11351.11700,E,14.04,323.96,210414,,,A*5B
$GPRMC,115951.00,A,2237.10160,N,11351.11400,E,18.36,327.43,210414,,,A*5B
$GPRMC,115952.00,A,2237.10520,N,11351.11040,E,16.20,314.72,210414,,,A*5B
$GPRMC,115953.00,A,2237.10880,N,11351.10620,E,19.98,314.69,210414,,,A*5B
$GPRMC,115954.00,A,2237.11360,N,11351.10320,E,18.36,325.45,210414,,,A*5B
$GPRMC,115955.00,A,2237.11900,N,11351.10080,E,19.98,327.15,210414,,,A*5B
$GPRMC,115956.00,A,2237.12440,N,11351.09660,E,21.06,324.26,210414,,,A*5B
$GPRMC,115957.00,A,2237.12920,N,11351.09300,E,21.60,325.83,210414,,,A*5B
$GPRMC,115958.00,A,2237.13400,N,11351.08940,E,21.06,325.34,210414,,,A*5B
$GPRMC,115959.00,A,2237.13940,N,11351.08580,E,21.06,325.05,210414,,,A*5B
$GPRMC,120000.00,A,2237.14480,N,11351.08220,E,21.06,324.93,210414,,,A*5B
$GPRMC,120001.00,A,2237.14960,N,11351.07860,E,22.14,324.61,210414,,,A*5B
$GPRMC,120002.00,A,2237.15500,N,11351.07440,E,22.68,324.47,210414,,,A*5B
$GPRMC,120003.00,A,2237.16040,N,11351.07020,E,23.22,323.28,210414,,,A*5B
$GPRMC,120004.00,A,2237.16580,N,11351.06540,E,23.76,323.94,210414,,,A*5B
$GPRMC,120005.00,A,2237.17120,N,11351.06120,E,24.84,323.61,210414,,,A*5B
$GPRMC,120006.00,A,2237.17720,N,11351.05700,E,24.84,324.34,210414,,,A*5B
$GPRMC,120007.00,A,2237.18320,N,11351.05220,E,25.38,322.69,210414,,,A*5B
$GPRMC,120008.00,A,2237.18860,N,11351.04740,E,25.92,323.01,210414,,,A*5B
$GPRMC,120009.00,A,2237.19460,N,11351.04260,E,25.38,324.56,210414,,,A*5B
$GPRMC,120010.00,A,2237.20060,N,11351.03840,E,25.92,324.09,210414,,,A*5B
$GPRMC,120011.00,A,2237.20660,N,11351.03360,E,25.38,324.72,210414,,,A*5B
$GPRMC,120012.00,A,2237.21260,N,11351.02880,E,26.46,323.60,210414,,,A*5B
$GPRMC,120013.00,A,2237.21800,N,11351.02400,E,26.46,322.38,210414,,,A*5B
$GPRMC,120014.00,A,2237.22400,N,11351.01860,E,26.46,322.86,210414,,,A*5B
$GPRMC,120015.00,A,2237.23060,N,11351.01380,E,26.46,323.08,210414,,,A*5B
$GPRMC,120016.00,A,2237.23660,N,11351.00900,E,27.00,322.25,210414,,,A*5B
$GPRMC,120017.00,A,2237.24260,N,11351.00360,E,27.54,321.27,210414,,,A*5B
$GPRMC,120018.00,A,2237.24860,N,11350.99820,E,27.54,320.60,210414,,,A*5B
$GPRMC,120019.00,A,2237.25460,N,11350.99280,E,27.54,320.41,210414,,,A*5B
$GPRMC,120020.00,A,2237.26000,N,11350.98740,E,26.46,320.27,210414,,,A*5B
$GPRMC,120021.00,A,2237.26540,N,11350.98260,E,24.84,320.84,210414,,,A*5B
$GPRMC,120022.00,A,2237.27080,N,11350.97780,E,23.22,320.75,210414,,,A*5B
$GPRMC,120023.00,A,2237.27560,N,11350.97360,E,21.06,321.60,210414,,,A*5B
$GPRMC,120024.00,A,2237.27980,N,11350.97000,E,18.90,322.03,210414,,,A*5B
$GPRMC,120025.00,A,2237.28400,N,11350.96700,E,16.74,321.98,210414,,,A*5B
$GPRMC,120026.00,A,2237.28760,N,11350.96340,E,16.20,322.01,210414,,,A*5B
$GPRMC,120027.00,A,2237.29120,N,11350.96040,E,16.20,321.60,210414,,,A*5B
$GPRMC,120028.00,A,2237.29540,N,11350.95740,E,18.36,321.31,210414,,,A*5B
$GPRMC,120029.00,A,2237.29960,N,11350.95380,E,18.90,321.59,210414,,,A*5B
$GPRMC,120030.00,A,2237.30380,N,11350.94960,E,18.90,320.91,210414,,,A*5B
$GPRMC,120031.00,A,2237.30800,N,11350.94600,E,19.98,322.22,210414,,,A*5B
$GPRMC,120032.00,A,2237.31220,N,11350.94240,E,19.98,322.31,210414,,,A*5B
$GPRMC,120033.00,A,2237.31700,N,11350.93880,E,19.44,323.05,210414,,,A*5B
$GPRMC,120034.00,A,2237.32120,N,11350.93520,E,18.36,323.29,210414,,,A*5B
$GPRMC,120035.00,A,2237.32480,N,11350.93220,E,17.28,321.67,210414,,,A*5B
$GPRMC,120036.00,A,2237.32900,N,11350.92860,E,17.28,321.20,210414,,,A*5B
$GPRMC,120037.00,A,2237.33260,N,11350.92560,E,16.74,321.34,210414,,,A*5B
$GPRMC,120038.00,A,2237.33620,N,11350.92200,E,17.28,320.22,210414,,,A*5B
$GPRMC,120039.00,A,2237.33980,N,11350.91840,E,17.82,319.01,210414,,,A*5B
$GPRMC,120040.00,A,2237.34400,N,11350.91480,E,18.90,321.47,210414,,,A*5B
$GPRMC,120041.00,A,2237.34820,N,11350.91120,E,18.90,319.07,210414,,,A*5B
$GPRMC,120042.00,A,2237.35240,N,11350.90760,E,18.90,319.30,210414,,,A*5B
$GPRMC,120043.00,A,2237.35600,N,11350.90400,E,17.82,319.89,210414,,,A*5B
$GPRMC,120044.00,A,2237.35960,N,11350.90040,E,17.28,320.15,210414,,,A*5B
$GPRMC,120045.00,A,2237.36380,N,11350.89680,E,16.74,320.33,210414,,,A*5B
$GPRMC,120046.00,A,2237.36740,N,11350.89380,E,16.20,323.09,210414,,,A*5B
$GPRMC,120047.00,A,2237.37100,N,11350.89140,E,15.12,329.33,210414,,,A*5B
$GPRMC,120048.00,A,2237.37460,N,11350.89020,E,14.04,341.88,210414,,,A*5B
$GPRMC,120049.00,A,2237.37880,N,11350.88960,E,14.58,356.05,210414,,,A*5B
$GPRMC,120050.00,A,2237.38300,N,11350.89020,E,15.12,12.10,210414,,,A*5B
$GPRMC,120051.00,A,2237.38660,N,11350.89200,E,15.66,29.82,210414,,,A*5B
$GPRMC,120052.00,A,2237.39020,N,11350.89560,E,16.20,46.15,210414,,,A*5B
$GPRMC,120053.00,A,2237.39380,N,11350.89920,E,17.28,49.01,210414,,,A*5B
$GPRMC,120054.00,A,2237.39680,N,11350.90340,E,18.36,49.11,210414,,,A*5B
$GPRMC,120055.00,A,2237.40040,N,11350.90820,E,19.98,49.53,210414,,,A*5B
$GPRMC,120056.00,A,2237.40400,N,11350.91300,E,21.06,51.40,210414,,,A*5B
$GPRMC,120057.00,A,2237.40760,N,11350.91840,E,21.60,51.67,210414,,,A*5B
$GPRMC,120058.00,A,2237.41180,N,11350.92320,E,21.60,52.06,210414,,,A*5B
$GPRMC,120059.00,A,2237.41540,N,11350.92860,E,21.06,51.09,210414,,,A*5B
$GPRMC,120100.00,A,2237.41900,N,11350.93340,E,19.98,49.75,210414,,,A*5B
$GPRMC,120101.00,A,2237.42260,N,11350.93760,E,18.36,50.53,210414,,,A*5B
$GPRMC,120102.00,A,2237.42560,N,11350.94180,E,16.74,49.89,210414,,,A*5B
$GPRMC,120103.00,A,2237.42860,N,11350.94540,E,16.20,48.58,210414,,,A*5B
$GPRMC,120104.00,A,2237.43160,N,11350.94900,E,16.74,47.39,210414,,,A*5B
$GPRMC,120105.00,A,2237.43520,N,11350.95260,E,17.28,46.66,210414,,,A*5B
$GPRMC,120106.00,A,2237.43820,N,11350.95680,E,18.36,46.64,210414,,,A*5B
$GPRMC,120107.00,A,2237.44180,N,11350.96100,E,18.36,47.05,210414,,,A*5B
$GPRMC,120108.00,A,2237.44540,N,11350.96520,E,18.90,45.96,210414,,,A*5B
$GPRMC,120109.00,A,2237.44960,N,11350.96940,E,19.44,46.19,210414,,,A*5B
$GPRMC,120110.00,A,2237.45320,N,11350.97360,E,19.98,45.20,210414,,,A*5B
$GPRMC,120111.00,A,2237.45740,N,11350.97780,E,19.44,46.78,210414,,,A*5B
$GPRMC,120112.00,A,2237.46100,N,11350.98260,E,19.44,48.09,210414,,,A*5B
$GPRMC,120113.00,A,2237.46460,N,11350.98680,E,19.44,49.93,210414,,,A*5B
$GPRMC,120114.00,A,2237.46820,N,11350.99160,E,19.98,52.74,210414,,,A*5B
$GPRMC,120115.00,A,2237.47120,N,11350.99640,E,19.98,54.66,210414,,,A*5B
$GPRMC,120116.00,A,2237.47420,N,11351.00180,E,19.98,57.55,210414,,,A*5B
$GPRMC,120117.00,A,2237.47720,N,11351.00720,E,20.52,60.40,210414,,,A*5B
$GPRMC,120118.00,A,2237.48020,N,11351.01260,E,21.06,63.37,210414,,,A*5B
$GPRMC,120119.00,A,2237.48260,N,11351.01860,E,21.60,65.74,210414,,,A*5B
$GPRMC,120120.00,A,2237.48500,N,11351.02460,E,21.60,69.88,210414,,,A*5B
$GPRMC,120121.00,A,2237.48680,N,11351.03120,E,22.14,73.06,210414,,,A*5B
$GPRMC,120122.00,A,2237.48860,N,11351.03780,E,22.68,75.56,210414,,,A*5B
$GPRMC,120123.00,A,2237.48980,N,11351.04440,E,22.14,78.52,210414,,,A*5B
$GPRMC,120124.00,A,2237.49100,N,11351.05160,E,22.68,81.52,210414,,,A*5B
$GPRMC,120125.00,A,2237.49160,N,11351.05820,E,23.76,82.82,210414,,,A*5B
$GPRMC,120126.00,A,2237.49220,N,11351.06600,E,24.84,83.85,210414,,,A*5B
$GPRMC,120127.00,A,2237.49340,N,11351.07380,E,26.46,83.79,210414,,,A*5B
$GPRMC,120128.00,A,2237.49400,N,11351.08160,E,26.46,83.66,210414,,,A*5B
$GPRMC,120129.00,A,2237.49460,N,11351.09000,E,27.54,83.73,210414,,,A*5B
$GPRMC,120130.00,A,2237.49580,N,11351.09840,E,28.08,83.34,210414,,,A*5B
$GPRMC,120131.00,A,2237.49700,N,11351.10680,E,28.08,83.18,210414,,,A*5B
$GPRMC,120132.00,A,2237.49760,N,11351.11520,E,28.62,82.71,210414,,,A*5B
$GPRMC,120133.00,A,2237.49880,N,11351.12420,E,28.62,82.02,210414,,,A*5B
$GPRMC,120134.00,A,2237.50000,N,11351.13260,E,29.16,82.02,210414,,,A*5B
$GPRMC,120135.00,A,2237.50120,N,11351.14100,E,28.62,80.56,210414,,,A*5B
$GPRMC,120136.00,A,2237.50240,N,11351.14940,E,27.54,79.04,210414,,,A*5B
$GPRMC,120137.00,A,2237.50420,N,11351.15780,E,27.00,75.84,210414,,,A*5B
$GPRMC,120138.00,A,2237.50660,N,11351.16560,E,26.46,71.20,210414,,,A*5B
$GPRMC,120139.00,A,2237.50960,N,11351.17280,E,26.46,65.53,210414,,,A*5B
$GPRMC,120140.00,A,2237.51320,N,11351.18000,E,26.46,59.75,210414,,,A*5B
$GPRMC,120141.00,A,2237.51680,N,11351.18660,E,27.54,56.84,210414,,,A*5B
$GPRMC,120142.00,A,2237.52160,N,11351.19380,E,28.62,53.60,210414,,,A*5B
$GPRMC,120143.00,A,2237.52700,N,11351.20040,E,28.62,49.75,210414,,,A*5B
$GPRMC,120144.00,A,2237.53240,N,11351.20640,E,28.08,44.20,210414,,,A*5B
$GPRMC,120145.00,A,2237.53840,N,11351.21180,E,28.08,38.25,210414,,,A*5B
$GPRMC,120146.00,A,2237.54440,N,11351.21720,E,27.54,38.29,210414,,,A*5B
$GPRMC,120147.00,A,2237.55160,N,11351.22140,E,29.16,29.08,210414,,,A*5B
$GPRMC,120148.00,A,2237.55880,N,11351.22560,E,28.62,27.96,210414,,,A*5B
$GPRMC,120149.00,A,2237.56540,N,11351.22920,E,28.08,25.64,210414,,,A*5B
$GPRMC,120150.00,A,2237.57260,N,11351.23280,E,27.54,24.73,210414,,,A*5B
$GPRMC,120151.00,A,2237.57980,N,11351.23640,E,27.54,24.80,210414,,,A*5B
$GPRMC,120152.00,A,2237.58700,N,11351.24000,E,27.54,24.89,210414,,,A*5B
$GPRMC,120153.00,A,2237.59360,N,11351.24300,E,25.38,24.69,210414,,,A*5B
$GPRMC,120154.00,A,2237.60020,N,11351.24600,E,24.30,22.14,210414,,,A*5B
$GPRMC,120155.00,A,2237.60560,N,11351.24960,E,22.68,32.13,210414,,,A*5B
$GPRMC,120156.00,A,2237.61160,N,11351.25320,E,23.76,30.73,210414,,,A*5B
$GPRMC,120157.00,A,2237.61820,N,11351.25440,E,24.30,11.91,210414,,,A*5B
$GPRMC,120158.00,A,2237.62540,N,11351.25560,E,25.92,7.26,210414,,,A*5B
$GPRMC,120159.00,A,2237.63320,N,11351.25560,E,27.00,2.41,210414,,,A*5B
$GPRMC,120200.00,A,2237.64160,N,11351.25500,E,28.62,357.41,210414,,,A*5B
$GPRMC,120201.00,A,2237.64940,N,11351.25440,E,28.62,351.86,210414,,,A*5B
$GPRMC,120202.00,A,2237.65720,N,11351.25260,E,29.16,348.37,210414,,,A*5B
$GPRMC,120203.00,A,2237.66560,N,11351.25020,E,29.16,344.21,210414,,,A*5B
$GPRMC,120204.00,A,2237.67340,N,11351.24780,E,29.16,343.98,210414,,,A*5B
$GPRMC,120205.00,A,2237.68180,N,11351.24420,E,30.78,340.04,210414,,,A*5B
$GPRMC,120206.00,A,2237.68960,N,11351.24060,E,29.16,340.55,210414,,,A*5B
$GPRMC,120207.00,A,2237.69800,N,11351.23760,E,30.24,341.02,210414,,,A*5B
$GPRMC,120208.00,A,2237.70640,N,11351.23460,E,31.32,342.44,210414,,,A*5B
$GPRMC,120209.00,A,2237.71480,N,11351.23160,E,31.86,345.17,210414,,,A*5B
$GPRMC,120210.00,A,2237.72380,N,11351.22980,E,32.40,348.04,210414,,,A*5B
$GPRMC,120211.00,A,2237.73280,N,11351.22800,E,33.48,350.27,210414,,,A*5B
$GPRMC,120212.00,A,2237.74240,N,11351.22620,E,32.94,354.24,210414,,,A*5B
$GPRMC,120213.00,A,2237.75200,N,11351.22560,E,34.02,358.06,210414,,,A*5B
$GPRMC,120214.00,A,2237.76160,N,11351.22560,E,34.02,1.99,210414,,,A*5B
$GPRMC,120215.00,A,2237.77120,N,11351.22680,E,34.56,5.84,210414,,,A*5B
$GPRMC,120216.00,A,2237.78080,N,11351.22800,E,34.56,9.51,210414,,,A*5B
$GPRMC,120217.00,A,2237.78980,N,11351.23040,E,34.56,14.26,210414,,,A*5B
$GPRMC,120218.00,A,2237.79940,N,11351.23340,E,34.02,18.50,210414,,,A*5B
$GPRMC,120219.00,A,2237.80840,N,11351.23700,E,34.02,21.96,210414,,,A*5B
$GPRMC,120220.00,A,2237.81680,N,11351.24120,E,33.48,26.34,210414,,,A*5B
$GPRMC,120221.00,A,2237.82520,N,11351.24600,E,33.48,30.55,210414,,,A*5B
$GPRMC,120222.00,A,2237.83300,N,11351.25140,E,33.48,34.18,210414,,,A*5B
$GPRMC,120223.00,A,2237.84080,N,11351.25740,E,34.02,36.60,210414,,,A*5B
$GPRMC,120224.00,A,2237.84800,N,11351.26400,E,33.48,38.40,210414,,,A*5B
$GPRMC,120225.00,A,2237.85520,N,11351.27000,E,33.48,38.63,210414,,,A*5B
$GPRMC,120226.00,A,2237.86300,N,11351.27600,E,34.02,38.17,210414,,,A*5B
$GPRMC,120227.00,A,2237.87020,N,11351.28260,E,34.02,38.72,210414,,,A*5B
$GPRMC,120228.00,A,2237.87800,N,11351.28920,E,34.56,38.41,210414,,,A*5B
$GPRMC,120229.00,A,2237.88520,N,11351.29580,E,35.10,38.93,210414,,,A*5B
$GPRMC,120230.00,A,2237.89300,N,11351.30240,E,35.10,39.35,210414,,,A*5B
$GPRMC,120231.00,A,2237.90080,N,11351.30900,E,35.10,39.18,210414,,,A*5B
$GPRMC,120232.00,A,2237.90800,N,11351.31560,E,34.56,38.87,210414,,,A*5B
$GPRMC,120233.00,A,2237.91580,N,11351.32220,E,34.02,38.97,210414,,,A*5B
$GPRMC,120234.00,A,2237.92300,N,11351.32820,E,33.48,39.02,210414,,,A*5B
$GPRMC,120235.00,A,2237.93020,N,11351.33480,E,32.40,39.19,210414,,,A*5B
$GPRMC,120236.00,A,2237.93680,N,11351.34080,E,31.32,39.57,210414,,,A*5B
$GPRMC,120237.00,A,2237.94340,N,11351.34620,E,29.70,38.21,210414,,,A*5B
$GPRMC,120238.00,A,2237.95000,N,11351.35220,E,29.70,38.43,210414,,,A*5B
$GPRMC,120239.00,A,2237.95660,N,11351.35760,E,30.24,38.51,210414,,,A*5B
$GPRMC,120240.00,A,2237.96320,N,11351.36360,E,29.70,38.90,210414,,,A*5B
$GPRMC,120241.00,A,2237.96980,N,11351.36900,E,29.70,38.90,210414,,,A*5B
$GPRMC,120242.00,A,2237.97640,N,11351.37440,E,29.16,38.96,210414,,,A*5B
$GPRMC,120243.00,A,2237.98240,N,11351.37980,E,28.62,38.84,210414,,,A*5B
$GPRMC,120244.00,A,2237.98840,N,11351.38520,E,28.08,38.72,210414,,,A*5B
$GPRMC,120245.00,A,2237.99500,N,11351.39060,E,28.08,38.93,210414,,,A*5B
$GPRMC,120246.00,A,2238.00100,N,11351.39600,E,28.08,38.91,210414,,,A*5B
$GPRMC,120247.00,A,2238.00760,N,11351.40140,E,28.62,38.46,210414,,,A*5B
$GPRMC,120248.00,A,2238.01360,N,11351.40680,E,28.62,37.89,210414,,,A*5B
$GPRMC,120249.00,A,2238.02020,N,11351.41220,E,28.62,37.45,210414,,,A*5B
$GPRMC,120250.00,A,2238.02680,N,11351.41700,E,29.16,37.53,210414,,,A*5B
$GPRMC,120251.00,A,2238.03280,N,11351.42240,E,29.16,37.50,210414,,,A*5B
$GPRMC,120252.00,A,2238.03940,N,11351.42780,E,29.16,37.09,210414,,,A*5B
$GPRMC,120253.00,A,2238.04600,N,11351.43320,E,28.62,36.76,210414,,,A*5B
$GPRMC,120254.00,A,2238.05260,N,11351.43800,E,28.62,35.96,210414,,,A*5B
$GPRMC,120255.00,A,2238.05920,N,11351.44340,E,27.54,35.32,210414,,,A*5B
$GPRMC,120256.00,A,2238.06520,N,11351.44820,E,28.08,34.79,210414,,,A*5B
$GPRMC,120257.00,A,2238.07180,N,11351.45300,E,27.00,35.12,210414,,,A*5B
$GPRMC,120258.00,A,2238.07780,N,11351.45720,E,25.38,34.78,210414,,,A*5B
$GPRMC,120259.00,A,2238.08320,N,11351.46140,E,24.30,34.28,210414,,,A*5B
$GPRMC,120300.00,A,2238.08860,N,11351.46560,E,23.22,34.02,210414,,,A*5B
$GPRMC,120301.00,A,2238.09400,N,11351.46920,E,22.14,33.85,210414,,,A*5B
$GPRMC,120302.00,A,2238.09880,N,11351.47280,E,21.60,34.68,210414,,,A*5B
$GPRMC,120303.00,A,2238.10360,N,11351.47640,E,20.52,36.51,210414,,,A*5B
$GPRMC,120304.00,A,2238.10840,N,11351.48000,E,18.90,36.82,210414,,,A*5B
$GPRMC,120305.00,A,2238.11260,N,11351.48360,E,18.90,35.61,210414,,,A*5B
$GPRMC,120306.00,A,2238.11680,N,11351.48660,E,18.90,34.51,210414,,,A*5B
$GPRMC,120307.00,A,2238.12160,N,11351.49020,E,18.36,33.67,210414,,,A*5B
$GPRMC,120308.00,A,2238.12580,N,11351.49320,E,17.82,33.22,210414,,,A*5B
$GPRMC,120309.00,A,2238.13000,N,11351.49620,E,17.82,32.76,210414,,,A*5B
$GPRMC,120310.00,A,2238.13420,N,11351.49860,E,16.74,33.25,210414,,,A*5B
$GPRMC,120311.00,A,2238.13780,N,11351.50160,E,15.66,34.32,210414,,,A*5B
$GPRMC,120312.00,A,2238.14140,N,11351.50400,E,14.58,35.13,210414,,,A*5B
$GPRMC,120313.00,A,2238.14440,N,11351.50640,E,13.50,34.95,210414,,,A*5B
$GPRMC,120314.00,A,2238.14740,N,11351.50880,E,11.88,34.47,210414,,,A*5B
$GPRMC,120315.00,A,2238.14980,N,11351.51060,E,10.26,33.96,210414,,,A*5B
$GPRMC,120316.00,A,2238.15220,N,11351.51240,E,8.64,33.60,210414,,,A*5B
$GPRMC,120317.00,A,2238.15400,N,11351.51360,E,8.10,33.02,210414,,,A*5B
$GPRMC,120318.00,A,2238.15580,N,11351.51480,E,7.02,32.51,210414,,,A*5B
$GPRMC,120319.00,A,2238.15760,N,11351.51600,E,6.48,32.38,210414,,,A*5B
$GPRMC,120320.00,A,2238.15940,N,11351.51720,E,5.94,32.32,210414,,,A*5B
$GPRMC,120321.00,A,2238.16060,N,11351.51780,E,5.40,32.16,210414,,,A*5B
$GPRMC,120322.00,A,2238.16180,N,11351.51900,E,4.86,32.44,210414,,,A*5B
$GPRMC,120323.00,A,2238.16300,N,11351.51960,E,4.32,32.92,210414,,,A*5B
$GPRMC,120324.00,A,2238.16420,N,11351.52020,E,3.78,32.59,210414,,,A*5B
$GPRMC,120325.00,A,2238.16480,N,11351.52080,E,3.24,31.75,210414,,,A*5B
$GPRMC,120326.00,A,2238.16600,N,11351.52140,E,3.24,31.27,210414,,,A*5B
$GPRMC,120327.00,A,2238.16660,N,11351.52200,E,3.24,31.21,210414,,,A*5B
$GPRMC,120328.00,A,2238.16720,N,11351.52260,E,3.24,30.62,210414,,,A*5B
$GPRMC,120329.00,A,2238.16840,N,11351.52260,E,3.24,30.02,210414,,,A*5B
$GPRMC,120330.00,A,2238.16900,N,11351.52320,E,3.24,29.67,210414,,,A*5B
$GPRMC,120331.00,A,2238.16960,N,11351.52380,E,2.16,28.71,210414,,,A*5B
$GPRMC,120332.00,A,2238.17020,N,11351.52440,E,2.16,28.60,210414,,,A*5B
$GPRMC,120333.00,A,2238.17080,N,11351.52440,E,1.62,29.43,210414,,,A*5B
$GPRMC,120338.00,A,2238.17260,N,11351.52500,E,2.16,28.36,210414,,,A*5B
$GPRMC,120339.00,A,2238.17320,N,11351.52560,E,1.62,28.16,210414,,,A*5B
$GPRMC,120340.00,A,2238.17380,N,11351.52560,E,1.62,29.47,210414,,,A*5B
$GPRMC,120346.00,A,2238.17560,N,11351.52680,E,1.62,24.77,210414,,,A*5B
$GPRMC,120347.00,A,2238.17620,N,11351.52740,E,2.16,26.89,210414,,,A*5B
$GPRMC,120348.00,A,2238.17680,N,11351.52740,E,2.16,24.03,210414,,,A*5B
