$GPRMC,004357.00,A,2234.96088,N,11351.36429,E,1.585,,100414,,,D*7C
$GPRMC,004358.00,A,2234.96132,N,11351.36448,E,1.461,41.02,100414,,,D*56
$GPRMC,004359.00,A,2234.96189,N,11351.36482,E,2.166,36.32,100414,,,D*53
$GPRMC,004400.00,A,2234.96251,N,11351.36543,E,2.971,39.36,100414,,,D*57
$GPRMC,004401.00,A,2234.96323,N,11351.36587,E,2.791,41.19,100414,,,D*58
$GPRMC,004402.00,A,2234.96395,N,11351.36623,E,2.713,41.75,100414,,,D*5B
$GPRMC,004403.00,A,2234.96462,N,11351.36663,E,2.692,41.79,100414,,,D*55
$GPRMC,004404.00,A,2234.96518,N,11351.36678,E,2.225,41.85,100414,,,D*5F
$GPRMC,004405.00,A,2234.96570,N,11351.36692,E,1.998,46.69,100414,,,D*5F
$GPRMC,004406.00,A,2234.96637,N,11351.36697,E,1.979,46.04,100414,,,D*5D
$GPRMC,004407.00,A,2234.96683,N,11351.36724,E,1.917,48.91,100414,,,D*50
$GPRMC,004408.00,A,2234.96728,N,11351.36743,E,1.817,49.21,100414,,,D*55
$GPRMC,004409.00,A,2234.96747,N,11351.36755,E,1.172,,100414,,,D*70
$GPRMC,004410.00,A,2234.96775,N,11351.36757,E,1.010,,100414,,,D*7E
$GPRMC,004411.00,A,2234.96815,N,11351.36776,E,1.517,,100414,,,D*77
$GPRMC,004412.00,A,2234.96851,N,11351.36793,E,1.609,,100414,,,D*73
$GPRMC,004413.00,A,2234.96898,N,11351.36800,E,1.533,,100414,,,D*78
$GPRMC,004414.00,A,2234.96963,N,11351.36795,E,1.629,39.31,100414,,,D*57
$GPRMC,004415.00,A,2234.96986,N,11351.36797,E,1.023,,100414,,,D*75
$GPRMC,004416.00,A,2234.97006,N,11351.36807,E,0.838,,100414,,,D*73
$GPRMC,004417.00,A,2234.97018,N,11351.36799,E,0.561,,100414,,,D*74
$GPRMC,004418.00,A,2234.97032,N,11351.36801,E,0.624,,100414,,,D*7F
$GPRMC,004419.00,A,2234.97058,N,11351.36796,E,0.953,,100414,,,D*7C
$GPRMC,004420.00,A,2234.97067,N,11351.36806,E,0.777,,100414,,,D*74
$GPRMC,004421.00,A,2234.97082,N,11351.36807,E,1.018,,100414,,,D*70
$GPRMC,004422.00,A,2234.97111,N,11351.36833,E,1.290,,100414,,,D*7D
$GPRMC,004423.00,A,2234.97169,N,11351.36842,E,1.529,,100414,,,D*70
$GPRMC,004424.00,A,2234.97157,N,11351.36876,E,0.955,,100414,,,D*7B
$GPRMC,004425.00,A,2234.97154,N,11351.36900,E,1.019,,100414,,,D*79
$GPRMC,004426.00,A,2234.97173,N,11351.36885,E,0.525,,100414,,,D*78
$GPRMC,004427.00,A,2234.97180,N,11351.36861,E,0.295,,100414,,,D*73
$GPRMC,004428.00,A,2234.97167,N,11351.36833,E,0.418,,100414,,,D*71
$GPRMC,004429.00,A,2234.97159,N,11351.36821,E,0.270,,100414,,,D*76
$GPRMC,004430.00,A,2234.97113,N,11351.36843,E,0.552,,100414,,,D*73
$GPRMC,004431.00,A,2234.97104,N,11351.36850,E,0.538,,100414,,,D*7A
$GPRMC,004432.00,A,2234.97134,N,11351.36828,E,0.047,,100414,,,D*78
$GPRMC,004433.00,A,2234.97104,N,11351.36830,E,0.436,,100414,,,D*71
$GPRMC,004434.00,A,2234.97075,N,11351.36858,E,0.568,,100414,,,D*75
$GPRMC,004435.00,A,2234.97064,N,11351.36871,E,0.481,,100414,,,D*79
$GPRMC,004436.00,A,2234.97056,N,11351.36887,E,0.544,,100414,,,D*7A
$GPRMC,004437.00,A,2234.97068,N,11351.36898,E,0.420,,100414,,,D*7B
$GPRMC,004438.00,A,2234.97065,N,11351.36911,E,0.215,,100414,,,D*79
$GPRMC,004439.00,A,2234.97055,N,11351.36929,E,0.276,,100414,,,D*75
$GPRMC,004440.00,A,2234.97043,N,11351.36944,E,0.488,,100414,,,D*70
$GPRMC,004441.00,A,2234.97033,N,11351.36966,E,0.540,,100414,,,D*73
$GPRMC,004442.00,A,2234.97035,N,11351.36992,E,0.581,,100414,,,D*70
$GPRMC,004443.00,A,2234.97029,N,11351.37012,E,0.640,,100414,,,D*72
$GPRMC,004444.00,A,2234.97017,N,11351.37033,E,0.589,,100414,,,D*7D
$GPRMC,004445.00,A,2234.97005,N,11351.37054,E,0.774,,100414,,,D*7E
$GPRMC,004446.00,A,2234.97006,N,11351.37070,E,0.463,,100414,,,D*7D
$GPRMC,004447.00,A,2234.96977,N,11351.37104,E,0.529,,100414,,,D*7F
$GPRMC,004448.00,A,2234.96956,N,11351.37117,E,0.318,,100414,,,D*75
$GPRMC,004449.00,A,2234.96930,N,11351.37133,E,0.580,,100414,,,D*75
$GPRMC,004450.00,A,2234.96907,N,11351.37155,E,0.641,,100414,,,D*77
$GPRMC,004451.00,A,2234.96907,N,11351.37165,E,0.229,,100414,,,D*7F
$GPRMC,004452.00,A,2234.96921,N,11351.37161,E,0.399,,100414,,,D*76
$GPRMC,004453.00,A,2234.96879,N,11351.37173,E,0.303,,100414,,,D*7B
$GPRMC,004454.00,A,2234.96893,N,11351.37172,E,0.060,,100414,,,D*7F
$GPRMC,004455.00,A,2234.96905,N,11351.37167,E,0.290,,100414,,,D*79
$GPRMC,004456.00,A,2234.96895,N,11351.37171,E,0.424,,100414,,,D*7C
$GPRMC,004457.00,A,2234.96884,N,11351.37188,E,0.157,,100414,,,D*7A
$GPRMC,004458.00,A,2234.96925,N,11351.37172,E,0.366,,100414,,,D*7A
$GPRMC,004459.00,A,2234.96932,N,11351.37172,E,0.307,,100414,,,D*7A
$GPRMC,004500.00,A,2234.96949,N,11351.37169,E,0.169,,100414,,,D*7B
$GPRMC,004501.00,A,2234.96979,N,11351.37157,E,0.231,,100414,,,D*7A
$GPRMC,004502.00,A,2234.96995,N,11351.37150,E,0.333,,100414,,,D*7F
$GPRMC,004503.00,A,2234.97020,N,11351.37138,E,0.448,,100414,,,D*7D
$GPRMC,004504.00,A,2234.97048,N,11351.37125,E,0.231,,100414,,,D*70
$GPRMC,004505.00,A,2234.97059,N,11351.37115,E,0.234,,100414,,,D*77
$GPRMC,004506.00,A,2234.97081,N,11351.37102,E,0.278,,100414,,,D*7F
$GPRMC,004507.00,A,2234.97093,N,11351.37105,E,0.243,,100414,,,D*72
$GPRMC,004508.00,A,2234.97093,N,11351.37116,E,0.196,,100414,,,D*74
$GPRMC,004509.00,A,2234.97101,N,11351.37133,E,0.262,,100414,,,D*70
$GPRMC,004510.00,A,2234.97115,N,11351.37143,E,0.221,,100414,,,D*7D
$GPRMC,004511.00,A,2234.97135,N,11351.37148,E,0.195,,100414,,,D*79
$GPRMC,004512.00,A,2234.97149,N,11351.37154,E,0.042,,100414,,,D*77
$GPRMC,004513.00,A,2234.97161,N,11351.37158,E,0.062,,100414,,,D*72
$GPRMC,004514.00,A,2234.97172,N,11351.37160,E,0.115,,100414,,,D*7D
$GPRMC,004515.00,A,2234.97176,N,11351.37158,E,0.040,,100414,,,D*72
$GPRMC,004516.00,A,2234.97177,N,11351.37153,E,0.042,,100414,,,D*79
$GPRMC,004517.00,A,2234.97182,N,11351.37141,E,0.048,,100414,,,D*7B
$GPRMC,004518.00,A,2234.97184,N,11351.37127,E,0.072,,100414,,,D*7B
$GPRMC,004519.00,A,2234.97187,N,11351.37117,E,0.072,,100414,,,D*7A
$GPRMC,004520.00,A,2234.97185,N,11351.37108,E,0.132,,100414,,,D*79
$GPRMC,004521.00,A,2234.97191,N,11351.37093,E,0.067,,100414,,,D*7F
$GPRMC,004522.00,A,2234.97196,N,11351.37081,E,0.100,,100414,,,D*78
$GPRMC,004523.00,A,2234.97198,N,11351.37067,E,0.091,,100414,,,D*76
$GPRMC,004524.00,A,2234.97199,N,11351.37058,E,0.043,,100414,,,D*73
$GPRMC,004525.00,A,2234.97202,N,11351.37043,E,0.015,,100414,,,D*7A
$GPRMC,004526.00,A,2234.97204,N,11351.37033,E,0.092,,100414,,,D*77
$GPRMC,004527.00,A,2234.97208,N,11351.37019,E,0.112,,100414,,,D*7B
$GPRMC,004528.00,A,2234.97211,N,11351.37006,E,0.055,,100414,,,D*70
$GPRMC,004529.00,A,2234.97213,N,11351.36998,E,0.039,,100414,,,D*76
$GPRMC,004530.00,A,2234.97218,N,11351.36991,E,0.054,,100414,,,D*77
$GPRMC,004531.00,A,2234.97223,N,11351.36982,E,0.027,,100414,,,D*78
$GPRMC,004532.00,A,2234.97229,N,11351.36970,E,0.064,,100414,,,D*7B
$GPRMC,004533.00,A,2234.97226,N,11351.36964,E,0.011,,100414,,,D*72
$GPRMC,004534.00,A,2234.97224,N,11351.36956,E,0.040,,100414,,,D*72
$GPRMC,004535.00,A,2234.97223,N,11351.36947,E,0.139,,100414,,,D*7B
$GPRMC,004536.00,A,2234.97217,N,11351.36939,E,0.395,,100414,,,D*72
$GPRMC,004537.00,A,2234.97212,N,11351.36936,E,0.118,,100414,,,D*7E
$GPRMC,004538.00,A,2234.97213,N,11351.36940,E,0.127,,100414,,,D*7D
$GPRMC,004539.00,A,2234.97219,N,11351.36958,E,0.475,,100414,,,D*7D
$GPRMC,004540.00,A,2234.97222,N,11351.36960,E,0.358,,100414,,,D*78
$GPRMC,004541.00,A,2234.97218,N,11351.36954,E,0.053,,100414,,,D*7F
$GPRMC,004542.00,A,2234.97219,N,11351.36960,E,0.183,,100414,,,D*76
$GPRMC,004543.00,A,2234.97217,N,11351.36951,E,0.081,,100414,,,D*78
$GPRMC,004544.00,A,2234.97223,N,11351.36949,E,0.298,,100414,,,D*7B
$GPRMC,004545.00,A,2234.97231,N,11351.36940,E,0.066,,100414,,,D*73
$GPRMC,004546.00,A,2234.97231,N,11351.36927,E,0.099,,100414,,,D*71
$GPRMC,004547.00,A,2234.97213,N,11351.36907,E,0.408,,100414,,,D*7E
$GPRMC,004548.00,A,2234.97213,N,11351.36898,E,0.199,,100414,,,D*7B
$GPRMC,004549.00,A,2234.97216,N,11351.36891,E,0.126,,100414,,,D*72
$GPRMC,004550.00,A,2234.97220,N,11351.36878,E,0.047,,100414,,,D*7E
$GPRMC,004551.00,A,2234.97239,N,11351.36880,E,0.255,,100414,,,D*71
$GPRMC,004552.00,A,2234.97246,N,11351.36859,E,0.106,,100414,,,D*7B
$GPRMC,004553.00,A,2234.97266,N,11351.36829,E,0.214,,100414,,,D*7F
$GPRMC,004554.00,A,2234.97256,N,11351.36830,E,0.205,,100414,,,D*73
$GPRMC,004555.00,A,2234.97257,N,11351.36826,E,0.155,,100414,,,D*72
$GPRMC,004556.00,A,2234.97264,N,11351.36812,E,0.341,,100414,,,D*71
$GPRMC,004557.00,A,2234.97268,N,11351.36847,E,0.575,,100414,,,D*7D
$GPRMC,004558.00,A,2234.97246,N,11351.36823,E,0.360,,100414,,,D*7E
$GPRMC,004559.00,A,2234.97226,N,11351.36788,E,0.624,,100414,,,D*72
$GPRMC,004600.00,A,2234.97241,N,11351.36731,E,0.801,,100414,,,D*77
$GPRMC,004601.00,A,2234.97238,N,11351.36734,E,0.446,,100414,,,D*72
$GPRMC,004602.00,A,2234.97221,N,11351.36760,E,0.070,,100414,,,D*79
$GPRMC,004603.00,A,2234.97215,N,11351.36738,E,0.187,,100414,,,D*7B
$GPRMC,004604.00,A,2234.97209,N,11351.36731,E,0.404,,100414,,,D*76
$GPRMC,004605.00,A,2234.97186,N,11351.36759,E,0.354,,100414,,,D*7F
$GPRMC,004606.00,A,2234.97180,N,11351.36777,E,0.397,,100414,,,D*79
$GPRMC,004607.00,A,2234.97176,N,11351.36740,E,0.203,,100414,,,D*79
$GPRMC,004608.00,A,2234.97163,N,11351.36724,E,0.400,,100414,,,D*75
$GPRMC,004609.00,A,2234.97148,N,11351.36707,E,0.469,,100414,,,D*73
$GPRMC,004610.00,A,2234.97147,N,11351.36705,E,0.106,,100414,,,D*7A
$GPRMC,004611.00,A,2234.97125,N,11351.36710,E,0.298,,100414,,,D*7F
$GPRMC,004612.00,A,2234.97092,N,11351.36714,E,0.662,,100414,,,D*74
$GPRMC,004613.00,A,2234.97083,N,11351.36700,E,0.314,,100414,,,D*74
$GPRMC,004614.00,A,2234.97069,N,11351.36694,E,0.230,,100414,,,D*7C
$GPRMC,004615.00,A,2234.97065,N,11351.36697,E,0.117,,100414,,,D*74
$GPRMC,004616.00,A,2234.97065,N,11351.36688,E,0.138,,100414,,,D*74
$GPRMC,004617.00,A,2234.97058,N,11351.36694,E,0.142,,100414,,,D*7B
$GPRMC,004618.00,A,2234.97061,N,11351.36684,E,0.194,,100414,,,D*74
$GPRMC,004619.00,A,2234.97038,N,11351.36718,E,0.263,,100414,,,D*76
$GPRMC,004620.00,A,2234.97020,N,11351.36727,E,0.651,,100414,,,D*7C
$GPRMC,004621.00,A,2234.97023,N,11351.36737,E,0.497,,100414,,,D*77
$GPRMC,004622.00,A,2234.97029,N,11351.36748,E,0.292,,100414,,,D*75
$GPRMC,004623.00,A,2234.97035,N,11351.36740,E,0.194,,100414,,,D*74
$GPRMC,004624.00,A,2234.97029,N,11351.36744,E,0.067,,100414,,,D*77
$GPRMC,004625.00,A,2234.97027,N,11351.36745,E,0.428,,100414,,,D*76
$GPRMC,004626.00,A,2234.97051,N,11351.36735,E,0.127,,100414,,,D*79
$GPRMC,004627.00,A,2234.97061,N,11351.36740,E,0.326,,100414,,,D*7A
$GPRMC,004628.00,A,2234.97063,N,11351.36740,E,0.175,,100414,,,D*73
$GPRMC,004629.00,A,2234.97087,N,11351.36715,E,0.259,,100414,,,D*75
$GPRMC,004630.00,A,2234.97109,N,11351.36678,E,0.521,,100414,,,D*78
$GPRMC,004631.00,A,2234.97102,N,11351.36672,E,0.359,,100414,,,D*71
$GPRMC,004632.00,A,2234.97120,N,11351.36646,E,0.565,,100414,,,D*7C
$GPRMC,004633.00,A,2234.97121,N,11351.36632,E,0.466,,100414,,,D*7D
$GPRMC,004634.00,A,2234.97123,N,11351.36615,E,0.203,,100414,,,D*78
$GPRMC,004635.00,A,2234.97124,N,11351.36590,E,0.208,,100414,,,D*7B
$GPRMC,004636.00,A,2234.97148,N,11351.36558,E,0.479,,100414,,,D*76
$GPRMC,004637.00,A,2234.97151,N,11351.36541,E,0.289,,100414,,,D*7E
$GPRMC,004638.00,A,2234.97170,N,11351.36516,E,0.196,,100414,,,D*7D
$GPRMC,004639.00,A,2234.97157,N,11351.36515,E,0.111,,100414,,,D*75
$GPRMC,004640.00,A,2234.97179,N,11351.36500,E,0.220,,100414,,,D*72
$GPRMC,004641.00,A,2234.97181,N,11351.36489,E,0.302,,100414,,,D*75
$GPRMC,004642.00,A,2234.97181,N,11351.36485,E,0.208,,100414,,,D*71
$GPRMC,004643.00,A,2234.97170,N,11351.36529,E,0.031,,100414,,,D*71
$GPRMC,004644.00,A,2234.97172,N,11351.36580,E,0.142,,100414,,,D*72
$GPRMC,004645.00,A,2234.97175,N,11351.36579,E,0.053,,100414,,,D*73
$GPRMC,004646.00,A,2234.97174,N,11351.36637,E,0.295,,100414,,,D*70
$GPRMC,004647.00,A,2234.97166,N,11351.36639,E,0.274,,100414,,,D*73
$GPRMC,004648.00,A,2234.97170,N,11351.36629,E,0.088,,100414,,,D*7B
$GPRMC,004649.00,A,2234.97198,N,11351.36609,E,0.695,,100414,,,D*74
$GPRMC,004650.00,A,2234.97178,N,11351.36619,E,0.524,,100414,,,D*7A
$GPRMC,004651.00,A,2234.97134,N,11351.36641,E,0.139,,100414,,,D*76
$GPRMC,004652.00,A,2234.97098,N,11351.36660,E,0.346,,100414,,,D*7B
$GPRMC,004653.00,A,2234.97084,N,11351.36654,E,0.178,,100414,,,D*7F
$GPRMC,004654.00,A,2234.97106,N,11351.36612,E,0.536,,100414,,,D*7F
$GPRMC,004655.00,A,2234.97131,N,11351.36587,E,0.513,,100414,,,D*72
$GPRMC,004656.00,A,2234.97138,N,11351.36591,E,0.075,,100414,,,D*7A
$GPRMC,004657.00,A,2234.97180,N,11351.36571,E,0.318,,100414,,,D*7E
$GPRMC,004658.00,A,2234.97207,N,11351.36573,E,0.750,,100414,,,D*77
$GPRMC,004659.00,A,2234.97263,N,11351.36551,E,1.364,357.45,100414,,,D*68
$GPRMC,004700.00,A,2234.97307,N,11351.36535,E,1.135,,100414,,,D*7C
$GPRMC,004701.00,A,2234.97353,N,11351.36518,E,1.034,,100414,,,D*73
$GPRMC,004702.00,A,2234.97409,N,11351.36491,E,1.532,343.65,100414,,,D*62
$GPRMC,004703.00,A,2234.97457,N,11351.36475,E,1.759,337.79,100414,,,D*63
$GPRMC,004704.00,A,2234.97526,N,11351.36441,E,1.975,334.70,100414,,,D*6E
$GPRMC,004705.00,A,2234.97542,N,11351.36446,E,1.268,,100414,,,D*70
$GPRMC,004706.00,A,2234.97498,N,11351.36473,E,1.158,,100414,,,D*73
$GPRMC,004707.00,A,2234.97570,N,11351.36404,E,1.479,331.42,100414,,,D*6A
$GPRMC,004708.00,A,2234.97610,N,11351.36356,E,1.083,,100414,,,D*78
$GPRMC,004709.00,A,2234.97626,N,11351.36332,E,0.470,,100414,,,D*77
$GPRMC,004710.00,A,2234.97653,N,11351.36303,E,0.405,,100414,,,D*7D
$GPRMC,004711.00,A,2234.97706,N,11351.36242,E,0.487,,100414,,,D*73
$GPRMC,004712.00,A,2234.97778,N,11351.36170,E,0.729,,100414,,,D*7C
$GPRMC,004713.00,A,2234.97834,N,11351.36115,E,0.220,,100414,,,D*75
$GPRMC,004714.00,A,2234.97941,N,11351.36057,E,0.294,,100414,,,D*79
$GPRMC,004715.00,A,2234.98047,N,11351.35997,E,0.328,,100414,,,D*78
$GPRMC,004716.00,A,2234.98155,N,11351.35941,E,0.617,,100414,,,D*7B
$GPRMC,004717.00,A,2234.98245,N,11351.35887,E,0.547,,100414,,,D*75
$GPRMC,004718.00,A,2234.98337,N,11351.35839,E,0.565,,100414,,,D*7B
$GPRMC,004719.00,A,2234.98439,N,11351.35796,E,1.001,,100414,,,D*7F
$GPRMC,004720.00,A,2234.98504,N,11351.35774,E,0.792,,100414,,,D*7A
$GPRMC,004721.00,A,2234.98566,N,11351.35746,E,0.954,,100414,,,D*7A
$GPRMC,004722.00,A,2234.98609,N,11351.35730,E,0.579,,100414,,,D*71
$GPRMC,004723.00,A,2234.98638,N,11351.35745,E,0.956,,100414,,,D*71
$GPRMC,004724.00,A,2234.98660,N,11351.35778,E,0.860,,100414,,,D*71
$GPRMC,004725.00,A,2234.98696,N,11351.35813,E,1.043,,100414,,,D*73
$GPRMC,004726.00,A,2234.98742,N,11351.35855,E,0.400,,100414,,,D*78
$GPRMC,004727.00,A,2234.98806,N,11351.35863,E,0.428,,100414,,,D*79
$GPRMC,004728.00,A,2234.98835,N,11351.35900,E,0.126,,100414,,,D*79
$GPRMC,004729.00,A,2234.98889,N,11351.35940,E,0.215,,100414,,,D*78
$GPRMC,004730.00,A,2234.98933,N,11351.35914,E,0.105,,100414,,,D*73
$GPRMC,004731.00,A,2234.98975,N,11351.35886,E,0.302,,100414,,,D*7F
$GPRMC,004732.00,A,2234.98947,N,11351.35904,E,0.541,,100414,,,D*77
$GPRMC,004733.00,A,2234.98970,N,11351.35879,E,0.013,,100414,,,D*7B
$GPRMC,004734.00,A,2234.99013,N,11351.35833,E,0.244,,100414,,,D*7F
$GPRMC,004735.00,A,2234.99001,N,11351.35822,E,0.505,,100414,,,D*7F
$GPRMC,004736.00,A,2234.98969,N,11351.35831,E,0.567,,100414,,,D*7C
$GPRMC,004737.00,A,2234.98950,N,11351.35831,E,0.273,,100414,,,D*75
$GPRMC,004738.00,A,2234.98907,N,11351.35844,E,0.299,,100414,,,D*7E
$GPRMC,004739.00,A,2234.98884,N,11351.35849,E,0.117,,100414,,,D*7D
$GPRMC,004740.00,A,2234.98837,N,11351.35869,E,0.183,,100414,,,D*74
$GPRMC,004741.00,A,2234.98794,N,11351.35880,E,0.371,,100414,,,D*7B
$GPRMC,004742.00,A,2234.98754,N,11351.35915,E,0.401,,100414,,,D*79
$GPRMC,004743.00,A,2234.98720,N,11351.35955,E,0.229,,100414,,,D*73
$GPRMC,004744.00,A,2234.98693,N,11351.35952,E,0.473,,100414,,,D*73
$GPRMC,004745.00,A,2234.98666,N,11351.35986,E,0.254,,100414,,,D*72
$GPRMC,004746.00,A,2234.98629,N,11351.35980,E,0.179,,100414,,,D*70
$GPRMC,004747.00,A,2234.98615,N,11351.36007,E,0.158,,100414,,,D*78
$GPRMC,004748.00,A,2234.98592,N,11351.36037,E,0.332,,100414,,,D*76
$GPRMC,004749.00,A,2234.98560,N,11351.36073,E,0.335,,100414,,,D*7D
$GPRMC,004750.00,A,2234.98533,N,11351.36101,E,0.173,,100414,,,D*77
$GPRMC,004751.00,A,2234.98493,N,11351.36120,E,0.250,,100414,,,D*7C
$GPRMC,004752.00,A,2234.98453,N,11351.36149,E,0.334,,100414,,,D*7F
$GPRMC,004753.00,A,2234.98410,N,11351.36177,E,0.245,,100414,,,D*73
$GPRMC,004754.00,A,2234.98375,N,11351.36195,E,0.076,,100414,,,D*7E
$GPRMC,004755.00,A,2234.98350,N,11351.36224,E,0.064,,100414,,,D*72
$GPRMC,004756.00,A,2234.98312,N,11351.36266,E,0.179,,100414,,,D*7C
$GPRMC,004757.00,A,2234.98291,N,11351.36305,E,0.299,,100414,,,D*7E
$GPRMC,004758.00,A,2234.98277,N,11351.36341,E,0.034,,100414,,,D*7C
$GPRMC,004759.00,A,2234.98269,N,11351.36376,E,0.168,,100414,,,D*7E
$GPRMC,004800.00,A,2234.98267,N,11351.36398,E,0.128,,100414,,,D*77
$GPRMC,004801.00,A,2234.98268,N,11351.36410,E,0.269,,100414,,,D*78
$GPRMC,004802.00,A,2234.98265,N,11351.36430,E,0.554,,100414,,,D*7D
$GPRMC,004803.00,A,2234.98244,N,11351.36452,E,0.165,,100414,,,D*7D
$GPRMC,004804.00,A,2234.98261,N,11351.36449,E,0.280,,100414,,,D*7F
$GPRMC,004805.00,A,2234.98273,N,11351.36445,E,0.104,,100414,,,D*7E
$GPRMC,004806.00,A,2234.98284,N,11351.36438,E,0.355,,100414,,,D*79
$GPRMC,004807.00,A,2234.98299,N,11351.36426,E,0.433,,100414,,,D*7C
$GPRMC,004808.00,A,2234.98294,N,11351.36422,E,0.214,,100414,,,D*79
$GPRMC,004809.00,A,2234.98299,N,11351.36398,E,0.262,,100414,,,D*72
$GPRMC,004810.00,A,2234.98300,N,11351.36371,E,0.281,,100414,,,D*71
$GPRMC,004811.00,A,2234.98333,N,11351.36322,E,0.788,,100414,,,D*7A
$GPRMC,004812.00,A,2234.98308,N,11351.36322,E,0.539,,100414,,,D*79
$GPRMC,004813.00,A,2234.98246,N,11351.36349,E,0.364,,100414,,,D*70
$GPRMC,004814.00,A,2234.98189,N,11351.36369,E,0.458,,100414,,,D*7D
$GPRMC,004815.00,A,2234.98183,N,11351.36355,E,0.514,,100414,,,D*70
$GPRMC,004816.00,A,2234.98130,N,11351.36367,E,0.006,,100414,,,D*7C
$GPRMC,004817.00,A,2234.98128,N,11351.36355,E,0.091,,100414,,,D*7B
$GPRMC,004818.00,A,2234.98098,N,11351.36363,E,0.123,,100414,,,D*73
$GPRMC,004819.00,A,2234.98096,N,11351.36350,E,0.406,,100414,,,D*7E
$GPRMC,004820.00,A,2234.98108,N,11351.36328,E,0.375,,100414,,,D*7E
$GPRMC,004821.00,A,2234.98118,N,11351.36308,E,0.278,,100414,,,D*70
$GPRMC,004822.00,A,2234.98098,N,11351.36300,E,0.145,,100414,,,D*7F
$GPRMC,004823.00,A,2234.98102,N,11351.36278,E,0.262,,100414,,,D*74
$GPRMC,004824.00,A,2234.98081,N,11351.36276,E,0.066,,100414,,,D*71
$GPRMC,004825.00,A,2234.98095,N,11351.36267,E,0.291,,100414,,,D*7F
$GPRMC,004826.00,A,2234.98099,N,11351.36255,E,0.235,,100414,,,D*7F
$GPRMC,004827.00,A,2234.98093,N,11351.36250,E,0.366,,100414,,,D*76
$GPRMC,004828.00,A,2234.98083,N,11351.36243,E,0.255,,100414,,,D*7B
$GPRMC,004829.00,A,2234.98072,N,11351.36237,E,0.237,,100414,,,D*73
$GPRMC,004830.00,A,2234.98066,N,11351.36226,E,0.147,,100414,,,D*7A
$GPRMC,004831.00,A,2234.98066,N,11351.36215,E,0.140,,100414,,,D*7C
$GPRMC,004832.00,A,2234.98052,N,11351.36212,E,0.052,,100414,,,D*7D
$GPRMC,004833.00,A,2234.98048,N,11351.36201,E,0.102,,100414,,,D*71
$GPRMC,004834.00,A,2234.98015,N,11351.36185,E,0.484,,100414,,,D*7A
$GPRMC,004835.00,A,2234.97997,N,11351.36174,E,0.327,,100414,,,D*77
$GPRMC,004836.00,A,2234.97987,N,11351.36167,E,0.141,,100414,,,D*75
$GPRMC,004837.00,A,2234.97979,N,11351.36165,E,0.047,,100414,,,D*70
$GPRMC,004838.00,A,2234.97971,N,11351.36166,E,0.054,,100414,,,D*76
$GPRMC,004839.00,A,2234.97958,N,11351.36159,E,0.185,,100414,,,D*7D
$GPRMC,004840.00,A,2234.97923,N,11351.36147,E,0.278,,100414,,,D*71
$GPRMC,004841.00,A,2234.97918,N,11351.36144,E,0.698,,100414,,,D*71
$GPRMC,004842.00,A,2234.97901,N,11351.36138,E,0.319,,100414,,,D*7D
$GPRMC,004843.00,A,2234.97883,N,11351.36130,E,0.423,,100414,,,D*71
$GPRMC,004844.00,A,2234.97866,N,11351.36126,E,0.336,,100414,,,D*79
$GPRMC,004845.00,A,2234.97848,N,11351.36122,E,0.340,,100414,,,D*71
$GPRMC,004846.00,A,2234.97828,N,11351.36118,E,0.194,,100414,,,D*76
$GPRMC,004847.00,A,2234.97811,N,11351.36115,E,0.076,,100414,,,D*7D
$GPRMC,004848.00,A,2234.97812,N,11351.36113,E,0.397,,100414,,,D*7B
$GPRMC,004849.00,A,2234.97806,N,11351.36119,E,0.804,,100414,,,D*74
$GPRMC,004850.00,A,2234.97806,N,11351.36118,E,0.930,,100414,,,D*7B
$GPRMC,004851.00,A,2234.97826,N,11351.36131,E,1.044,,100414,,,D*78
$GPRMC,004852.00,A,2234.97828,N,11351.36151,E,0.963,,100414,,,D*7E
$GPRMC,004853.00,A,2234.97821,N,11351.36166,E,1.045,,100414,,,D*7E
$GPRMC,004854.00,A,2234.97778,N,11351.36183,E,0.424,,100414,,,D*73
$GPRMC,004855.00,A,2234.97766,N,11351.36199,E,0.265,,100414,,,D*75
$GPRMC,004856.00,A,2234.97752,N,11351.36223,E,0.171,,100414,,,D*75
$GPRMC,004857.00,A,2234.97747,N,11351.36252,E,0.249,,100414,,,D*7E
$GPRMC,004858.00,A,2234.97755,N,11351.36278,E,0.569,,100414,,,D*7F
$GPRMC,004859.00,A,2234.97788,N,11351.36286,E,0.644,,100414,,,D*73
$GPRMC,004900.00,A,2234.97814,N,11351.36310,E,0.561,,100414,,,D*7E
$GPRMC,004901.00,A,2234.97838,N,11351.36354,E,0.259,,100414,,,D*7D
$GPRMC,004902.00,A,2234.97857,N,11351.36385,E,0.195,,100414,,,D*78
$GPRMC,004903.00,A,2234.97858,N,11351.36413,E,0.133,,100414,,,D*72
$GPRMC,004904.00,A,2234.97866,N,11351.36429,E,0.294,,100414,,,D*7F
$GPRMC,004905.00,A,2234.97860,N,11351.36445,E,0.201,,100414,,,D*7E
$GPRMC,004906.00,A,2234.97853,N,11351.36453,E,0.449,,100414,,,D*70
$GPRMC,004907.00,A,2234.97844,N,11351.36464,E,0.472,,100414,,,D*7B
$GPRMC,004908.00,A,2234.97833,N,11351.36472,E,0.498,,100414,,,D*77
$GPRMC,004909.00,A,2234.97810,N,11351.36478,E,0.187,,100414,,,D*76
$GPRMC,004910.00,A,2234.97783,N,11351.36488,E,0.134,,100414,,,D*7C
$GPRMC,004911.00,A,2234.97757,N,11351.36499,E,0.101,,100414,,,D*72
$GPRMC,004912.00,A,2234.97745,N,11351.36501,E,0.394,,100414,,,D*7C
$GPRMC,004913.00,A,2234.97730,N,11351.36504,E,0.186,,100414,,,D*7B
$GPRMC,004914.00,A,2234.97706,N,11351.36518,E,0.135,,100414,,,D*7C
$GPRMC,004915.00,A,2234.97698,N,11351.36525,E,0.418,,100414,,,D*7F
$GPRMC,004916.00,A,2234.97670,N,11351.36542,E,0.198,,100414,,,D*76
$GPRMC,004917.00,A,2234.97643,N,11351.36556,E,0.040,,100414,,,D*76
$GPRMC,004918.00,A,2234.97630,N,11351.36567,E,0.106,,100414,,,D*7C
$GPRMC,004919.00,A,2234.97622,N,11351.36580,E,0.379,,100414,,,D*7D
$GPRMC,004920.00,A,2234.97625,N,11351.36603,E,0.367,,100414,,,D*77
$GPRMC,004921.00,A,2234.97645,N,11351.36630,E,0.482,,100414,,,D*7C
$GPRMC,004922.00,A,2234.97637,N,11351.36640,E,0.515,,100414,,,D*72
$GPRMC,004923.00,A,2234.97644,N,11351.36661,E,0.583,,100414,,,D*7B
$GPRMC,004924.00,A,2234.97649,N,11351.36688,E,0.570,,100414,,,D*7A
$GPRMC,004925.00,A,2234.97649,N,11351.36715,E,0.525,,100414,,,D*7E
$GPRMC,004926.00,A,2234.97647,N,11351.36741,E,0.312,,100414,,,D*70
$GPRMC,004927.00,A,2234.97645,N,11351.36767,E,0.193,,100414,,,D*7C
$GPRMC,004928.00,A,2234.97621,N,11351.36776,E,0.323,,100414,,,D*78
$GPRMC,004929.00,A,2234.97600,N,11351.36783,E,0.370,,100414,,,D*76
$GPRMC,004930.00,A,2234.97592,N,11351.36777,E,0.708,,100414,,,D*76
$GPRMC,004931.00,A,2234.97576,N,11351.36780,E,0.355,,100414,,,D*79
$GPRMC,004932.00,A,2234.97555,N,11351.36783,E,0.370,,100414,,,D*7F
$GPRMC,004933.00,A,2234.97530,N,11351.36791,E,0.414,,100414,,,D*7B
$GPRMC,004934.00,A,2234.97512,N,11351.36799,E,0.319,,100414,,,D*7E
$GPRMC,004935.00,A,2234.97488,N,11351.36809,E,0.121,,100414,,,D*72
$GPRMC,004936.00,A,2234.97467,N,11351.36816,E,0.172,,100414,,,D*78
$GPRMC,004937.00,A,2234.97452,N,11351.36820,E,0.246,,100414,,,D*7E
$GPRMC,004938.00,A,2234.97426,N,11351.36833,E,0.097,,100414,,,D*7E
$GPRMC,004939.00,A,2234.97410,N,11351.36841,E,0.146,,100414,,,D*72
$GPRMC,004940.00,A,2234.97397,N,11351.36846,E,0.141,,100414,,,D*74
$GPRMC,004941.00,A,2234.97394,N,11351.36841,E,0.130,,100414,,,D*77
$GPRMC,004942.00,A,2234.97396,N,11351.36827,E,0.165,,100414,,,D*76
$GPRMC,004943.00,A,2234.97386,N,11351.36822,E,0.135,,100414,,,D*76
$GPRMC,004944.00,A,2234.97385,N,11351.36811,E,0.152,,100414,,,D*73
$GPRMC,004945.00,A,2234.97380,N,11351.36803,E,0.200,,100414,,,D*70
$GPRMC,004946.00,A,2234.97401,N,11351.36778,E,0.331,,100414,,,D*7D
$GPRMC,004947.00,A,2234.97421,N,11351.36745,E,0.445,,100414,,,D*74
$GPRMC,004948.00,A,2234.97446,N,11351.36709,E,0.490,,100414,,,D*7A
$GPRMC,004949.00,A,2234.97454,N,11351.36689,E,0.142,,100414,,,D*7B
$GPRMC,004950.00,A,2234.97467,N,11351.36661,E,0.257,,100414,,,D*72
$GPRMC,004951.00,A,2234.97455,N,11351.36665,E,0.130,,100414,,,D*74
$GPRMC,004952.00,A,2234.97462,N,11351.36678,E,0.288,,100414,,,D*7F
$GPRMC,004953.00,A,2234.97456,N,11351.36694,E,0.092,,100414,,,D*72
$GPRMC,004954.00,A,2234.97463,N,11351.36671,E,0.161,,100414,,,D*75
$GPRMC,004955.00,A,2234.97494,N,11351.36650,E,0.171,,100414,,,D*7E
$GPRMC,004956.00,A,2234.97525,N,11351.36632,E,0.233,,100414,,,D*77
$GPRMC,004957.00,A,2234.97541,N,11351.36629,E,0.340,,100414,,,D*7B
$GPRMC,004958.00,A,2234.97543,N,11351.36634,E,0.326,,100414,,,D*7A
$GPRMC,004959.00,A,2234.97545,N,11351.36633,E,0.423,,100414,,,D*78
$GPRMC,005000.00,A,2234.97552,N,11351.36634,E,0.444,,100414,,,D*7C
$GPRMC,005001.00,A,2234.97575,N,11351.36645,E,0.344,,100414,,,D*79
$GPRMC,005002.00,A,2234.97597,N,11351.36662,E,0.197,,100414,,,D*7F
$GPRMC,005003.00,A,2234.97602,N,11351.36664,E,0.313,,100414,,,D*79
$GPRMC,005004.00,A,2234.97587,N,11351.36681,E,0.129,,100414,,,D*70
$GPRMC,005005.00,A,2234.97595,N,11351.36682,E,0.063,,100414,,,D*7E
$GPRMC,005006.00,A,2234.97663,N,11351.36672,E,0.262,,100414,,,D*7B
$GPRMC,005007.00,A,2234.97725,N,11351.36664,E,0.366,,100414,,,D*7B
$GPRMC,005008.00,A,2234.97763,N,11351.36667,E,0.377,,100414,,,D*75
$GPRMC,005009.00,A,2234.97842,N,11351.36667,E,0.445,,100414,,,D*7E
$GPRMC,005010.00,A,2234.97907,N,11351.36668,E,0.471,,100414,,,D*7E
$GPRMC,005011.00,A,2234.97966,N,11351.36662,E,0.713,,100414,,,D*75
$GPRMC,005012.00,A,2234.97968,N,11351.36662,E,0.651,,100414,,,D*7F
$GPRMC,005013.00,A,2234.97992,N,11351.36680,E,0.460,,100414,,,D*77
$GPRMC,005014.00,A,2234.98027,N,11351.36698,E,0.566,,100414,,,D*76
$GPRMC,005015.00,A,2234.98040,N,11351.36726,E,0.336,,100414,,,D*71
$GPRMC,005016.00,A,2234.98057,N,11351.36749,E,0.372,,100414,,,D*7D
$GPRMC,005017.00,A,2234.98060,N,11351.36769,E,0.111,,100414,,,D*7D
$GPRMC,005018.00,A,2234.98072,N,11351.36781,E,0.200,,100414,,,D*74
$GPRMC,005019.00,A,2234.98080,N,11351.36797,E,0.039,,100414,,,D*77
$GPRMC,005020.00,A,2234.98084,N,11351.36810,E,0.052,,100414,,,D*74
$GPRMC,005021.00,A,2234.98086,N,11351.36819,E,0.153,,100414,,,D*7E
$GPRMC,005022.00,A,2234.98082,N,11351.36827,E,0.254,,100414,,,D*70
$GPRMC,005023.00,A,2234.98090,N,11351.36836,E,0.314,,100414,,,D*77
$GPRMC,005024.00,A,2234.98115,N,11351.36852,E,0.552,,100414,,,D*7A
$GPRMC,005025.00,A,2234.98136,N,11351.36859,E,0.496,,100414,,,D*78
$GPRMC,005026.00,A,2234.98151,N,11351.36868,E,0.584,,100414,,,D*7A
$GPRMC,005027.00,A,2234.98159,N,11351.36874,E,0.267,,100414,,,D*74
$GPRMC,005028.00,A,2234.98159,N,11351.36874,E,0.147,,100414,,,D*7A
$GPRMC,005029.00,A,2234.98164,N,11351.36876,E,0.146,,100414,,,D*76
$GPRMC,005030.00,A,2234.98162,N,11351.36878,E,0.115,,100414,,,D*70
$GPRMC,005031.00,A,2234.98174,N,11351.36878,E,0.323,,100414,,,D*71
$GPRMC,005032.00,A,2234.98194,N,11351.36879,E,0.191,,100414,,,D*76
$GPRMC,005033.00,A,2234.98199,N,11351.36890,E,0.117,,100414,,,D*73
$GPRMC,005034.00,A,2234.98187,N,11351.36889,E,0.153,,100414,,,D*73
$GPRMC,005035.00,A,2234.98201,N,11351.36881,E,0.524,,100414,,,D*73
$GPRMC,005036.00,A,2234.98210,N,11351.36880,E,0.459,,100414,,,D*7A
$GPRMC,005037.00,A,2234.98208,N,11351.36889,E,0.231,,100414,,,D*73
$GPRMC,005038.00,A,2234.98224,N,11351.36891,E,0.509,,100414,,,D*77
$GPRMC,005039.00,A,2234.98241,N,11351.36887,E,0.533,,100414,,,D*7B
$GPRMC,005040.00,A,2234.98251,N,11351.36893,E,0.222,,100414,,,D*76
$GPRMC,005041.00,A,2234.98259,N,11351.36896,E,0.084,,100414,,,D*74
$GPRMC,005042.00,A,2234.98274,N,11351.36890,E,0.352,,100414,,,D*76
$GPRMC,005043.00,A,2234.98228,N,11351.36894,E,0.367,,100414,,,D*7C
$GPRMC,005044.00,A,2234.98193,N,11351.36894,E,0.260,,100414,,,D*7E
$GPRMC,005045.00,A,2234.98164,N,11351.36893,E,0.224,,100414,,,D*70
$GPRMC,005046.00,A,2234.98130,N,11351.36892,E,0.180,,100414,,,D*7E
$GPRMC,005047.00,A,2234.98096,N,11351.36890,E,0.279,,100414,,,D*75
$GPRMC,005048.00,A,2234.98056,N,11351.36891,E,0.374,,100414,,,D*7B
$GPRMC,005049.00,A,2234.98023,N,11351.36890,E,0.205,,100414,,,D*7E
$GPRMC,005050.00,A,2234.97983,N,11351.36892,E,0.045,,100414,,,D*7E
$GPRMC,005051.00,A,2234.97936,N,11351.36897,E,0.123,,100414,,,D*75
$GPRMC,005052.00,A,2234.97902,N,11351.36900,E,0.092,,100414,,,D*75
$GPRMC,005053.00,A,2234.97866,N,11351.36903,E,0.025,,100414,,,D*78
$GPRMC,005054.00,A,2234.97837,N,11351.36904,E,0.043,,100414,,,D*7C
$GPRMC,005055.00,A,2234.97804,N,11351.36903,E,0.070,,100414,,,D*7A
$GPRMC,005056.00,A,2234.97772,N,11351.36900,E,0.087,,100414,,,D*7C
$GPRMC,005057.00,A,2234.97741,N,11351.36896,E,0.081,,100414,,,D*75
$GPRMC,005058.00,A,2234.97717,N,11351.36892,E,0.039,,100414,,,D*7E
$GPRMC,005059.00,A,2234.97691,N,11351.36885,E,0.084,,100414,,,D*70
$GPRMC,005100.00,A,2234.97663,N,11351.36877,E,0.160,,100414,,,D*76
$GPRMC,005101.00,A,2234.97638,N,11351.36870,E,0.135,,100414,,,D*7E
$GPRMC,005102.00,A,2234.97628,N,11351.36859,E,0.180,,100414,,,D*79
$GPRMC,005103.00,A,2234.97618,N,11351.36854,E,0.091,,100414,,,D*77
$GPRMC,005104.00,A,2234.97602,N,11351.36853,E,0.068,,100414,,,D*7A
$GPRMC,005105.00,A,2234.97594,N,11351.36851,E,0.105,,100414,,,D*7F
$GPRMC,005106.00,A,2234.97577,N,11351.36850,E,0.020,,100414,,,D*76
$GPRMC,005107.00,A,2234.97572,N,11351.36850,E,0.021,,100414,,,D*73
$GPRMC,005108.00,A,2234.97568,N,11351.36852,E,0.048,,100414,,,D*7A
$GPRMC,005109.00,A,2234.97561,N,11351.36850,E,0.175,,100414,,,D*7F
$GPRMC,005110.00,A,2234.97549,N,11351.36857,E,0.057,,100414,,,D*7B
$GPRMC,005111.00,A,2234.97539,N,11351.36855,E,0.130,,100414,,,D*7F
$GPRMC,005112.00,A,2234.97527,N,11351.36853,E,0.041,,100414,,,D*72
$GPRMC,005113.00,A,2234.97518,N,11351.36855,E,0.071,,100414,,,D*7A
$GPRMC,005114.00,A,2234.97510,N,11351.36854,E,0.119,,100414,,,D*7B
$GPRMC,005115.00,A,2234.97498,N,11351.36853,E,0.054,,100414,,,D*74
$GPRMC,005116.00,A,2234.97484,N,11351.36853,E,0.018,,100414,,,D*72
$GPRMC,005117.00,A,2234.97458,N,11351.36866,E,0.089,,100414,,,D*7C
$GPRMC,005118.00,A,2234.97432,N,11351.36883,E,0.105,,100414,,,D*71
$GPRMC,005119.00,A,2234.97405,N,11351.36899,E,0.062,,100414,,,D*7F
$GPRMC,005120.00,A,2234.97397,N,11351.36899,E,0.035,,100414,,,D*7B
$GPRMC,005121.00,A,2234.97392,N,11351.36911,E,0.009,,100414,,,D*71
$GPRMC,005122.00,A,2234.97384,N,11351.36921,E,0.004,,100414,,,D*7B
$GPRMC,005123.00,A,2234.97376,N,11351.36928,E,0.059,,100414,,,D*76
$GPRMC,005124.00,A,2234.97373,N,11351.36926,E,0.127,,100414,,,D*72
$GPRMC,005125.00,A,2234.97376,N,11351.36926,E,0.309,,100414,,,D*78
$GPRMC,005126.00,A,2234.97373,N,11351.36939,E,0.388,,100414,,,D*79
$GPRMC,005127.00,A,2234.97368,N,11351.36938,E,0.269,,100414,,,D*7D
$GPRMC,005128.00,A,2234.97356,N,11351.36931,E,0.088,,100414,,,D*7B
$GPRMC,005129.00,A,2234.97355,N,11351.36932,E,0.225,,100414,,,D*7F
$GPRMC,005130.00,A,2234.97348,N,11351.36925,E,0.034,,100414,,,D*7F
$GPRMC,005131.00,A,2234.97344,N,11351.36922,E,0.265,,100414,,,D*73
$GPRMC,005132.00,A,2234.97340,N,11351.36910,E,0.140,,100414,,,D*71
$GPRMC,005133.00,A,2234.97339,N,11351.36899,E,0.154,,100414,,,D*7B
$GPRMC,005134.00,A,2234.97343,N,11351.36894,E,0.128,,100414,,,D*77
$GPRMC,005135.00,A,2234.97333,N,11351.36879,E,0.203,,100414,,,D*78
$GPRMC,005136.00,A,2234.97333,N,11351.36867,E,0.202,,100414,,,D*75
$GPRMC,005137.00,A,2234.97328,N,11351.36862,E,0.210,,100414,,,D*78
$GPRMC,005138.00,A,2234.97330,N,11351.36858,E,0.163,,100414,,,D*70
$GPRMC,005139.00,A,2234.97333,N,11351.36853,E,0.247,,100414,,,D*7C
$GPRMC,005140.00,A,2234.97329,N,11351.36829,E,0.328,,100414,,,D*7C
$GPRMC,005141.00,A,2234.97331,N,11351.36810,E,0.283,,100414,,,D*7E
$GPRMC,005142.00,A,2234.97332,N,11351.36810,E,0.081,,100414,,,D*7E
$GPRMC,005143.00,A,2234.97329,N,11351.36812,E,0.206,,100414,,,D*7A
$GPRMC,005144.00,A,2234.97334,N,11351.36812,E,0.109,,100414,,,D*7D
$GPRMC,005145.00,A,2234.97342,N,11351.36810,E,0.195,,100414,,,D*7A
$GPRMC,005146.00,A,2234.97346,N,11351.36806,E,0.090,,100414,,,D*7E
$GPRMC,005147.00,A,2234.97345,N,11351.36807,E,0.035,,100414,,,D*72
$GPRMC,005148.00,A,2234.97341,N,11351.36815,E,0.171,,100414,,,D*7B
$GPRMC,005149.00,A,2234.97340,N,11351.36819,E,0.076,,100414,,,D*71
$GPRMC,005150.00,A,2234.97343,N,11351.36813,E,0.108,,100414,,,D*78
$GPRMC,005151.00,A,2234.97340,N,11351.36815,E,0.060,,100414,,,D*73
$GPRMC,005152.00,A,2234.97338,N,11351.36814,E,0.152,,100414,,,D*7E
$GPRMC,005153.00,A,2234.97340,N,11351.36809,E,0.316,,100414,,,D*7E
$GPRMC,005154.00,A,2234.97337,N,11351.36805,E,0.205,,100414,,,D*76
$GPRMC,005155.00,A,2234.97337,N,11351.36809,E,0.011,,100414,,,D*7C
$GPRMC,005156.00,A,2234.97343,N,11351.36830,E,0.038,,100414,,,D*7D
$GPRMC,005157.00,A,2234.97338,N,11351.36835,E,0.144,,100414,,,D*7F
$GPRMC,005158.00,A,2234.97344,N,11351.36853,E,0.129,,100414,,,D*70
$GPRMC,005159.00,A,2234.97348,N,11351.36852,E,0.178,,100414,,,D*78
$GPRMC,005200.00,A,2234.97354,N,11351.36863,E,0.168,,100414,,,D*79
$GPRMC,005201.00,A,2234.97361,N,11351.36865,E,0.287,,100414,,,D*7A
$GPRMC,005202.00,A,2234.97361,N,11351.36868,E,0.339,,100414,,,D*70
$GPRMC,005203.00,A,2234.97361,N,11351.36881,E,0.088,,100414,,,D*7F
$GPRMC,005204.00,A,2234.97351,N,11351.36887,E,0.311,,100414,,,D*7E
$GPRMC,005205.00,A,2234.97345,N,11351.36886,E,0.496,,100414,,,D*73
$GPRMC,005206.00,A,2234.97348,N,11351.36886,E,0.056,,100414,,,D*75
$GPRMC,005207.00,A,2234.97337,N,11351.36888,E,0.184,,100414,,,D*7C
$GPRMC,005208.00,A,2234.97330,N,11351.36893,E,0.367,,100414,,,D*71
$GPRMC,005209.00,A,2234.97341,N,11351.36888,E,0.160,,100414,,,D*79
$GPRMC,005210.00,A,2234.97346,N,11351.36879,E,0.176,,100414,,,D*7F
$GPRMC,005211.00,A,2234.97357,N,11351.36874,E,0.230,,100414,,,D*72
$GPRMC,005212.00,A,2234.97352,N,11351.36876,E,0.069,,100414,,,D*78
$GPRMC,005213.00,A,2234.97323,N,11351.36872,E,0.406,,100414,,,D*76
$GPRMC,005214.00,A,2234.97305,N,11351.36854,E,0.289,,100414,,,D*70
$GPRMC,005215.00,A,2234.97297,N,11351.36841,E,0.126,,100414,,,D*79
$GPRMC,005216.00,A,2234.97285,N,11351.36831,E,0.110,,100414,,,D*7B
$GPRMC,005217.00,A,2234.97282,N,11351.36821,E,0.072,,100414,,,D*79
$GPRMC,005218.00,A,2234.97272,N,11351.36812,E,0.119,,100414,,,D*75
$GPRMC,005219.00,A,2234.97249,N,11351.36809,E,0.265,,100414,,,D*7E
$GPRMC,005220.00,A,2234.97241,N,11351.36799,E,0.147,,100414,,,D*79
$GPRMC,005221.00,A,2234.97235,N,11351.36792,E,0.188,,100414,,,D*73
$GPRMC,005222.00,A,2234.97217,N,11351.36797,E,0.192,,100414,,,D*7E
$GPRMC,005223.00,A,2234.97212,N,11351.36788,E,0.314,,100414,,,D*78
$GPRMC,005224.00,A,2234.97202,N,11351.36782,E,0.381,,100414,,,D*78
$GPRMC,005225.00,A,2234.97193,N,11351.36778,E,0.314,,100414,,,D*7B
$GPRMC,005226.00,A,2234.97182,N,11351.36777,E,0.374,,100414,,,D*71
$GPRMC,005227.00,A,2234.97183,N,11351.36769,E,0.646,,100414,,,D*7A
$GPRMC,005228.00,A,2234.97167,N,11351.36773,E,0.187,,100414,,,D*7E
$GPRMC,005229.00,A,2234.97165,N,11351.36757,E,0.276,,100414,,,D*76
$GPRMC,005230.00,A,2234.97174,N,11351.36749,E,0.274,,100414,,,A*76
$GPRMC,005231.00,A,2234.97179,N,11351.36737,E,0.238,,100414,,,A*7B
$GPRMC,005232.00,A,2234.97193,N,11351.36725,E,0.305,,100414,,,A*70
$GPRMC,005233.00,A,2234.97196,N,11351.36713,E,0.180,,100414,,,A*7E
$GPRMC,005234.00,A,2234.97206,N,11351.36702,E,0.219,,100414,,,A*70
$GPRMC,005235.00,A,2234.97214,N,11351.36694,E,0.163,,100414,,,A*72
$GPRMC,005236.00,A,2234.97219,N,11351.36697,E,0.098,,100414,,,A*7A
$GPRMC,005237.00,A,2234.97224,N,11351.36698,E,0.061,,100414,,,A*7C
$GPRMC,005238.00,A,2234.97243,N,11351.36699,E,0.200,,100414,,,A*76
$GPRMC,005239.00,A,2234.97259,N,11351.36699,E,0.305,,100414,,,A*78
$GPRMC,005240.00,A,2234.97279,N,11351.36699,E,0.517,,100414,,,A*71
$GPRMC,005241.00,A,2234.97297,N,11351.36704,E,0.650,,100414,,,A*75
$GPRMC,005242.00,A,2234.97295,N,11351.36713,E,0.199,,100414,,,A*70
$GPRMC,005243.00,A,2234.97298,N,11351.36721,E,0.082,,100414,,,A*76
$GPRMC,005244.00,A,2234.97296,N,11351.36725,E,0.116,,100414,,,A*77
$GPRMC,005245.00,A,2234.97294,N,11351.36731,E,0.132,,100414,,,A*77
$GPRMC,005246.00,A,2234.97302,N,11351.36731,E,0.403,,100414,,,A*7D
$GPRMC,005247.00,A,2234.97299,N,11351.36736,E,0.143,,100414,,,A*79
$GPRMC,005248.00,A,2234.97296,N,11351.36739,E,0.177,,100414,,,A*71
$GPRMC,005249.00,A,2234.97282,N,11351.36744,E,0.133,,100414,,,A*7F
$GPRMC,005250.00,A,2234.97286,N,11351.36748,E,0.242,,100414,,,A*7A
$GPRMC,005251.00,A,2234.97287,N,11351.36749,E,0.222,,100414,,,A*7D
$GPRMC,005252.00,A,2234.97288,N,11351.36752,E,0.160,,100414,,,A*7E
$GPRMC,005253.00,A,2234.97272,N,11351.36754,E,0.062,,100414,,,A*7F
$GPRMC,005254.00,A,2234.97277,N,11351.36752,E,0.343,,100414,,,A*7B
$GPRMC,005255.00,A,2234.97275,N,11351.36755,E,0.085,,100414,,,A*76
$GPRMC,005256.00,A,2234.97285,N,11351.36753,E,0.298,,100414,,,A*72
$GPRMC,005257.00,A,2234.97297,N,11351.36751,E,0.682,,100414,,,A*7D
$GPRMC,005258.00,A,2234.97315,N,11351.36755,E,0.887,,100414,,,A*76
$GPRMC,005259.00,A,2234.97301,N,11351.36762,E,0.460,,100414,,,A*73
$GPRMC,005300.00,A,2234.97297,N,11351.36766,E,0.318,,100414,,,A*7C
$GPRMC,005301.00,A,2234.97308,N,11351.36777,E,0.570,,100414,,,A*72
$GPRMC,005302.00,A,2234.97297,N,11351.36785,E,0.538,,100414,,,A*77
$GPRMC,005303.00,A,2234.97288,N,11351.36783,E,0.442,,100414,,,A*72
$GPRMC,005304.00,A,2234.97300,N,11351.36783,E,0.406,,100414,,,A*74
$GPRMC,005305.00,A,2234.97308,N,11351.36784,E,0.418,,100414,,,A*75
$GPRMC,005306.00,A,2234.97336,N,11351.36782,E,0.982,,100414,,,A*73
$GPRMC,005307.00,A,2234.97321,N,11351.36782,E,0.629,,100414,,,A*7A
$GPRMC,005308.00,A,2234.97316,N,11351.36783,E,0.310,,100414,,,A*7F
$GPRMC,005309.00,A,2234.97303,N,11351.36780,E,0.164,,100414,,,A*78
$GPRMC,005310.00,A,2234.97308,N,11351.36784,E,0.117,,100414,,,A*7B
$GPRMC,005311.00,A,2234.97326,N,11351.36798,E,0.675,,100414,,,A*78
$GPRMC,005312.00,A,2234.97356,N,11351.36817,E,0.932,9.87,100414,,,A*60
$GPRMC,005313.00,A,2234.97367,N,11351.36825,E,0.614,,100414,,,A*71
$GPRMC,005314.00,A,2234.97379,N,11351.36834,E,0.669,,100414,,,A*73
$GPRMC,005315.00,A,2234.97387,N,11351.36836,E,0.546,,100414,,,A*7F
$GPRMC,005316.00,A,2234.97389,N,11351.36840,E,0.268,,100414,,,A*78
$GPRMC,005317.00,A,2234.97390,N,11351.36842,E,0.058,,100414,,,A*72
$GPRMC,005318.00,A,2234.97397,N,11351.36850,E,0.270,,100414,,,A*71
$GPRMC,005319.00,A,2234.97399,N,11351.36854,E,0.472,,100414,,,A*7E
$GPRMC,005320.00,A,2234.97414,N,11351.36862,E,0.337,,100414,,,A*75
$GPRMC,005321.00,A,2234.97425,N,11351.36871,E,0.104,,100414,,,A*76
$GPRMC,005322.00,A,2234.97433,N,11351.36877,E,0.054,,100414,,,A*70
$GPRMC,005323.00,A,2234.97422,N,11351.36891,E,0.066,,100414,,,A*78
$GPRMC,005324.00,A,2234.97407,N,11351.36905,E,0.027,,100414,,,A*71
$GPRMC,005325.00,A,2234.97393,N,11351.36928,E,0.069,,100414,,,A*7F
$GPRMC,005326.00,A,2234.97396,N,11351.36949,E,0.077,,100414,,,A*71
$GPRMC,005327.00,A,2234.97398,N,11351.36970,E,0.081,,100414,,,A*7D
$GPRMC,005328.00,A,2234.97403,N,11351.37002,E,0.265,,100414,,,A*72
$GPRMC,005329.00,A,2234.97415,N,11351.37021,E,0.259,,100414,,,A*7A
$GPRMC,005330.00,A,2234.97416,N,11351.37023,E,0.137,,100414,,,A*78
$GPRMC,005331.00,A,2234.97421,N,11351.37024,E,0.071,,100414,,,A*79
$GPRMC,005332.00,A,2234.97429,N,11351.37021,E,0.015,,100414,,,A*75
$GPRMC,005333.00,A,2234.97432,N,11351.37016,E,0.096,,100414,,,A*71
$GPRMC,005334.00,A,2234.97449,N,11351.37037,E,0.050,,100414,,,A*73
$GPRMC,005335.00,A,2234.97452,N,11351.37035,E,0.045,,100414,,,A*7E
$GPRMC,005336.00,A,2234.97471,N,11351.37053,E,0.128,,100414,,,A*76
$GPRMC,005337.00,A,2234.97490,N,11351.37078,E,0.195,,100414,,,A*77
$GPRMC,005338.00,A,2234.97495,N,11351.37084,E,0.140,,100414,,,A*76
$GPRMC,005339.00,A,2234.97503,N,11351.37088,E,0.073,,100414,,,A*74
$GPRMC,005340.00,A,2234.97508,N,11351.37091,E,0.178,,100414,,,A*73
$GPRMC,005341.00,A,2234.97517,N,11351.37094,E,0.249,,100414,,,A*78
$GPRMC,005342.00,A,2234.97530,N,11351.37100,E,0.147,,100414,,,A*7F
$GPRMC,005343.00,A,2234.97542,N,11351.37106,E,0.062,,100414,,,A*7B
$GPRMC,005344.00,A,2234.97551,N,11351.37111,E,0.074,,100414,,,A*7F
$GPRMC,005345.00,A,2234.97564,N,11351.37115,E,0.336,,100414,,,A*79
$GPRMC,005346.00,A,2234.97578,N,11351.37122,E,0.387,,100414,,,A*79
$GPRMC,005347.00,A,2234.97587,N,11351.37130,E,0.205,,100414,,,A*70
$GPRMC,005348.00,A,2234.97589,N,11351.37139,E,0.138,,100414,,,A*75
$GPRMC,005349.00,A,2234.97594,N,11351.37149,E,0.444,,100414,,,A*71
$GPRMC,005350.00,A,2234.97602,N,11351.37156,E,0.321,,100414,,,A*7F
$GPRMC,005351.00,A,2234.97608,N,11351.37167,E,0.122,,100414,,,A*77
$GPRMC,005352.00,A,2234.97609,N,11351.37175,E,0.057,,100414,,,A*75
$GPRMC,005353.00,A,2234.97606,N,11351.37191,E,0.187,,100414,,,A*7D
$GPRMC,005354.00,A,2234.97609,N,11351.37200,E,0.326,,100414,,,A*77
$GPRMC,005355.00,A,2234.97614,N,11351.37207,E,0.256,,100414,,,A*7B
$GPRMC,005356.00,A,2234.97618,N,11351.37215,E,0.230,,100414,,,A*77
$GPRMC,005357.00,A,2234.97627,N,11351.37222,E,0.378,,100414,,,A*73
$GPRMC,005358.00,A,2234.97631,N,11351.37232,E,0.374,,100414,,,A*76
$GPRMC,005359.00,A,2234.97638,N,11351.37240,E,0.255,,100414,,,A*79
$GPRMC,005400.00,A,2234.97644,N,11351.37248,E,0.176,,100414,,,A*73
$GPRMC,005401.00,A,2234.97648,N,11351.37254,E,0.243,,100414,,,A*76
$GPRMC,005402.00,A,2234.97652,N,11351.37263,E,0.315,,100414,,,A*78
$GPRMC,005403.00,A,2234.97654,N,11351.37273,E,0.230,,100414,,,A*78
$GPRMC,005404.00,A,2234.97664,N,11351.37282,E,0.250,,100414,,,A*74
$GPRMC,005405.00,A,2234.97675,N,11351.37288,E,0.199,,100414,,,A*79
$GPRMC,005406.00,A,2234.97682,N,11351.37296,E,0.463,,100414,,,A*7D
$GPRMC,005407.00,A,2234.97682,N,11351.37306,E,0.400,,100414,,,A*71
$GPRMC,005408.00,A,2234.97689,N,11351.37314,E,0.209,,100414,,,A*79
$GPRMC,005409.00,A,2234.97700,N,11351.37319,E,0.092,,100414,,,A*75
$GPRMC,005410.00,A,2234.97702,N,11351.37322,E,0.178,,100414,,,A*72
$GPRMC,005411.00,A,2234.97702,N,11351.37326,E,0.342,,100414,,,A*7C
$GPRMC,005412.00,A,2234.97712,N,11351.37341,E,0.177,,100414,,,A*7B
$GPRMC,005413.00,A,2234.97719,N,11351.37349,E,0.132,,100414,,,A*78
$GPRMC,005414.00,A,2234.97712,N,11351.37352,E,0.221,,100414,,,A*7F
$GPRMC,005415.00,A,2234.97709,N,11351.37354,E,0.044,,100414,,,A*73
$GPRMC,005416.00,A,2234.97706,N,11351.37354,E,0.046,,100414,,,A*7D
$GPRMC,005417.00,A,2234.97702,N,11351.37351,E,0.124,,100414,,,A*78
$GPRMC,005418.00,A,2234.97695,N,11351.37349,E,0.125,,100414,,,A*70
$GPRMC,005419.00,A,2234.97690,N,11351.37344,E,0.217,,100414,,,A*7B
$GPRMC,005420.00,A,2234.97687,N,11351.37339,E,0.223,,100414,,,A*7A
$GPRMC,005421.00,A,2234.97682,N,11351.37336,E,0.097,,100414,,,A*7C
$GPRMC,005422.00,A,2234.97666,N,11351.37331,E,0.081,,100414,,,A*75
$GPRMC,005423.00,A,2234.97656,N,11351.37334,E,0.039,,100414,,,A*71
$GPRMC,005424.00,A,2234.97642,N,11351.37335,E,0.083,,100414,,,A*73
$GPRMC,005425.00,A,2234.97628,N,11351.37332,E,0.095,,100414,,,A*7E
$GPRMC,005426.00,A,2234.97615,N,11351.37329,E,0.050,,100414,,,A*70
$GPRMC,005427.00,A,2234.97603,N,11351.37328,E,0.087,,100414,,,A*7D
$GPRMC,005428.00,A,2234.97591,N,11351.37330,E,0.264,,100414,,,A*7C
$GPRMC,005429.00,A,2234.97584,N,11351.37326,E,0.502,,100414,,,A*79
$GPRMC,005430.00,A,2234.97566,N,11351.37332,E,0.145,,100414,,,A*7F
$GPRMC,005431.00,A,2234.97547,N,11351.37341,E,0.190,,100414,,,A*71
$GPRMC,005432.00,A,2234.97524,N,11351.37351,E,0.040,,100414,,,A*7A
$GPRMC,005433.00,A,2234.97505,N,11351.37362,E,0.089,,100414,,,A*7D
$GPRMC,005434.00,A,2234.97498,N,11351.37369,E,0.106,,100414,,,A*72
$GPRMC,005435.00,A,2234.97490,N,11351.37373,E,0.264,,100414,,,A*77
$GPRMC,005436.00,A,2234.97476,N,11351.37378,E,0.183,,100414,,,A*7D
$GPRMC,005437.00,A,2234.97466,N,11351.37382,E,0.428,,100414,,,A*7C
$GPRMC,005438.00,A,2234.97469,N,11351.37379,E,0.641,,100414,,,A*75
$GPRMC,005439.00,A,2234.97454,N,11351.37377,E,0.175,,100414,,,A*74
$GPRMC,005440.00,A,2234.97442,N,11351.37378,E,0.289,,100414,,,A*72
$GPRMC,005441.00,A,2234.97435,N,11351.37374,E,0.450,,100414,,,A*7D
$GPRMC,005442.00,A,2234.97439,N,11351.37369,E,0.460,,100414,,,A*7D
$GPRMC,005443.00,A,2234.97435,N,11351.37367,E,0.067,,100414,,,A*7D
$GPRMC,005444.00,A,2234.97435,N,11351.37364,E,0.088,,100414,,,A*78
$GPRMC,005445.00,A,2234.97434,N,11351.37361,E,0.149,,100414,,,A*71
$GPRMC,005446.00,A,2234.97431,N,11351.37354,E,0.281,,100414,,,A*76
$GPRMC,005447.00,A,2234.97423,N,11351.37351,E,0.115,,100414,,,A*7F
$GPRMC,005448.00,A,2234.97436,N,11351.37349,E,0.031,,100414,,,A*7A
$GPRMC,005449.00,A,2234.97444,N,11351.37351,E,0.081,,100414,,,A*7C
$GPRMC,005450.00,A,2234.97429,N,11351.37347,E,0.063,,100414,,,A*74
$GPRMC,005451.00,A,2234.97422,N,11351.37342,E,0.161,,100414,,,A*78
$GPRMC,005452.00,A,2234.97439,N,11351.37341,E,0.144,,100414,,,A*75
$GPRMC,005453.00,A,2234.97451,N,11351.37350,E,0.158,,100414,,,A*77
$GPRMC,005454.00,A,2234.97460,N,11351.37359,E,0.206,,100414,,,A*73
$GPRMC,005455.00,A,2234.97464,N,11351.37364,E,0.264,,100414,,,A*7C
$GPRMC,005456.00,A,2234.97461,N,11351.37371,E,0.126,,100414,,,A*7B
$GPRMC,005457.00,A,2234.97450,N,11351.37372,E,0.088,,100414,,,A*7E
$GPRMC,005458.00,A,2234.97453,N,11351.37382,E,0.104,,100414,,,A*78
$GPRMC,005459.00,A,2234.97452,N,11351.37391,E,0.083,,100414,,,A*74
$GPRMC,005500.00,A,2234.97455,N,11351.37400,E,0.173,,100414,,,A*7F
$GPRMC,005501.00,A,2234.97450,N,11351.37409,E,0.214,,100414,,,A*70
$GPRMC,005502.00,A,2234.97447,N,11351.37418,E,0.137,,100414,,,A*77
$GPRMC,005503.00,A,2234.97449,N,11351.37428,E,0.155,,100414,,,A*7F
$GPRMC,005504.00,A,2234.97444,N,11351.37436,E,0.125,,100414,,,A*7D
$GPRMC,005505.00,A,2234.97439,N,11351.37445,E,0.073,,100414,,,A*70
$GPRMC,005506.00,A,2234.97431,N,11351.37454,E,0.108,,100414,,,A*76
$GPRMC,005507.00,A,2234.97421,N,11351.37461,E,0.204,,100414,,,A*7F
$GPRMC,005508.00,A,2234.97420,N,11351.37467,E,0.379,,100414,,,A*7C
$GPRMC,005509.00,A,2234.97416,N,11351.37470,E,0.211,,100414,,,A*71
$GPRMC,005510.00,A,2234.97411,N,11351.37473,E,0.218,,100414,,,A*74
$GPRMC,005511.00,A,2234.97407,N,11351.37474,E,0.344,,100414,,,A*7D
$GPRMC,005512.00,A,2234.97411,N,11351.37484,E,0.253,,100414,,,A*71
$GPRMC,005513.00,A,2234.97410,N,11351.37484,E,0.211,,100414,,,A*77
$GPRMC,005514.00,A,2234.97395,N,11351.37484,E,0.021,,100414,,,A*7B
$GPRMC,005515.00,A,2234.97389,N,11351.37485,E,0.111,,100414,,,A*74
$GPRMC,005516.00,A,2234.97381,N,11351.37483,E,0.155,,100414,,,A*79
$GPRMC,005517.00,A,2234.97370,N,11351.37479,E,0.010,,100414,,,A*73
$GPRMC,005518.00,A,2234.97380,N,11351.37493,E,0.132,,100414,,,A*76
$GPRMC,005519.00,A,2234.97387,N,11351.37503,E,0.187,,100414,,,A*76
$GPRMC,005520.00,A,2234.97385,N,11351.37506,E,0.118,,100414,,,A*7D
$GPRMC,005521.00,A,2234.97370,N,11351.37504,E,0.128,,100414,,,A*77
$GPRMC,005522.00,A,2234.97350,N,11351.37493,E,0.138,,100414,,,A*78
$GPRMC,005523.00,A,2234.97339,N,11351.37484,E,0.178,,100414,,,A*74
$GPRMC,005524.00,A,2234.97326,N,11351.37475,E,0.271,,100414,,,A*79
$GPRMC,005525.00,A,2234.97297,N,11351.37470,E,0.085,,100414,,,A*7F
$GPRMC,005526.00,A,2234.97279,N,11351.37455,E,0.100,,100414,,,A*77
$GPRMC,005527.00,A,2234.97259,N,11351.37437,E,0.102,,100414,,,A*72
$GPRMC,005528.00,A,2234.97232,N,11351.37419,E,0.309,,100414,,,A*75
$GPRMC,005529.00,A,2234.97213,N,11351.37397,E,0.249,,100414,,,A*73
$GPRMC,005530.00,A,2234.97196,N,11351.37364,E,0.556,,100414,,,A*70
$GPRMC,005531.00,A,2234.97180,N,11351.37342,E,0.382,,100414,,,A*7D
$GPRMC,005532.00,A,2234.97162,N,11351.37312,E,0.448,,100414,,,A*76
$GPRMC,005533.00,A,2234.97148,N,11351.37306,E,0.103,,100414,,,A*70
$GPRMC,005534.00,A,2234.97142,N,11351.37290,E,0.174,,100414,,,A*73
$GPRMC,005535.00,A,2234.97143,N,11351.37279,E,0.046,,100414,,,A*74
$GPRMC,005536.00,A,2234.97131,N,11351.37260,E,0.271,,100414,,,A*7C
$GPRMC,005537.00,A,2234.97115,N,11351.37236,E,0.443,,100414,,,A*7F
$GPRMC,005538.00,A,2234.97124,N,11351.37238,E,0.155,,100414,,,A*7E
$GPRMC,005539.00,A,2234.97128,N,11351.37232,E,0.201,,100414,,,A*7B
$GPRMC,005540.00,A,2234.97131,N,11351.37229,E,0.263,,100414,,,A*73
$GPRMC,005541.00,A,2234.97131,N,11351.37221,E,0.261,,100414,,,A*78
$GPRMC,005542.00,A,2234.97135,N,11351.37220,E,0.079,,100414,,,A*75
$GPRMC,005543.00,A,2234.97126,N,11351.37212,E,0.262,,100414,,,A*7F
$GPRMC,005544.00,A,2234.97114,N,11351.37197,E,0.418,,100414,,,A*7C
$GPRMC,005545.00,A,2234.97111,N,11351.37194,E,0.274,,100414,,,A*77
$GPRMC,005546.00,A,2234.97114,N,11351.37187,E,0.160,,100414,,,A*75
$GPRMC,005547.00,A,2234.97120,N,11351.37176,E,0.226,,100414,,,A*7C
$GPRMC,005548.00,A,2234.97138,N,11351.37178,E,0.127,,100414,,,A*76
$GPRMC,005549.00,A,2234.97154,N,11351.37182,E,0.031,,100414,,,A*7E
$GPRMC,005550.00,A,2234.97176,N,11351.37190,E,0.018,,100414,,,A*7E
$GPRMC,005551.00,A,2234.97196,N,11351.37182,E,0.413,,100414,,,A*7D
$GPRMC,005552.00,A,2234.97197,N,11351.37192,E,0.076,,100414,,,A*79
$GPRMC,005553.00,A,2234.97194,N,11351.37186,E,0.130,,100414,,,A*7D
$GPRMC,005554.00,A,2234.97204,N,11351.37180,E,0.336,,100414,,,A*72
$GPRMC,005555.00,A,2234.97213,N,11351.37183,E,0.444,,100414,,,A*74
$GPRMC,005556.00,A,2234.97214,N,11351.37191,E,0.316,,100414,,,A*73
$GPRMC,005557.00,A,2234.97223,N,11351.37198,E,0.051,,100414,,,A*7F
$GPRMC,005558.00,A,2234.97220,N,11351.37204,E,0.217,,100414,,,A*75
$GPRMC,005559.00,A,2234.97269,N,11351.37199,E,0.634,,100414,,,A*7B
$GPRMC,005600.00,A,2234.97286,N,11351.37193,E,0.401,,100414,,,A*7B
$GPRMC,005601.00,A,2234.97304,N,11351.37194,E,0.172,,100414,,,A*77
$GPRMC,005602.00,A,2234.97327,N,11351.37200,E,0.262,,100414,,,A*79
$GPRMC,005603.00,A,2234.97323,N,11351.37197,E,0.242,,100414,,,A*73
$GPRMC,005604.00,A,2234.97338,N,11351.37202,E,0.344,,100414,,,A*76
$GPRMC,005605.00,A,2234.97354,N,11351.37205,E,0.302,,100414,,,A*78
$GPRMC,005606.00,A,2234.97364,N,11351.37213,E,0.256,,100414,,,A*7F
$GPRMC,005607.00,A,2234.97363,N,11351.37212,E,0.084,,100414,,,A*75
$GPRMC,005608.00,A,2234.97365,N,11351.37214,E,0.139,,100414,,,A*7D
$GPRMC,005609.00,A,2234.97369,N,11351.37214,E,0.238,,100414,,,A*72
$GPRMC,005610.00,A,2234.97370,N,11351.37212,E,0.069,,100414,,,A*72
$GPRMC,005611.00,A,2234.97377,N,11351.37203,E,0.188,,100414,,,A*7A
$GPRMC,005612.00,A,2234.97381,N,11351.37195,E,0.122,,100414,,,A*7C
$GPRMC,005613.00,A,2234.97384,N,11351.37186,E,0.444,,100414,,,A*7F
$GPRMC,005614.00,A,2234.97407,N,11351.37173,E,0.574,,100414,,,A*7C
$GPRMC,005615.00,A,2234.97422,N,11351.37161,E,0.428,,100414,,,A*71
$GPRMC,005616.00,A,2234.97432,N,11351.37157,E,0.402,,100414,,,A*7E
$GPRMC,005617.00,A,2234.97440,N,11351.37154,E,0.459,,100414,,,A*77
$GPRMC,005618.00,A,2234.97458,N,11351.37143,E,0.581,,100414,,,A*73
$GPRMC,005619.00,A,2234.97468,N,11351.37137,E,0.465,,100414,,,A*79
$GPRMC,005620.00,A,2234.97478,N,11351.37130,E,0.464,,100414,,,A*74
$GPRMC,005621.00,A,2234.97484,N,11351.37121,E,0.542,,100414,,,A*73
$GPRMC,005622.00,A,2234.97505,N,11351.37099,E,0.530,,100414,,,A*7F
$GPRMC,005623.00,A,2234.97528,N,11351.37071,E,0.350,,100414,,,A*77
$GPRMC,005624.00,A,2234.97550,N,11351.37048,E,0.257,,100414,,,A*73
$GPRMC,005625.00,A,2234.97565,N,11351.37021,E,0.323,,100414,,,A*79
$GPRMC,005626.00,A,2234.97580,N,11351.37001,E,0.387,,100414,,,A*7D
$GPRMC,005627.00,A,2234.97578,N,11351.36980,E,0.104,,100414,,,A*73
$GPRMC,005628.00,A,2234.97591,N,11351.36972,E,0.278,,100414,,,A*7E
$GPRMC,005629.00,A,2234.97600,N,11351.36956,E,0.457,,100414,,,A*79
$GPRMC,005630.00,A,2234.97620,N,11351.36941,E,0.898,,100414,,,A*7A
$GPRMC,005631.00,A,2234.97627,N,11351.36929,E,0.662,,100414,,,A*79
$GPRMC,005632.00,A,2234.97662,N,11351.36921,E,0.905,,100414,,,A*7D
$GPRMC,005633.00,A,2234.97666,N,11351.36905,E,0.645,,100414,,,A*75
$GPRMC,005634.00,A,2234.97670,N,11351.36886,E,0.580,,100414,,,A*75
$GPRMC,005635.00,A,2234.97657,N,11351.36871,E,0.290,,100414,,,A*7F
$GPRMC,005636.00,A,2234.97648,N,11351.36854,E,0.122,,100414,,,A*7F
$GPRMC,005637.00,A,2234.97654,N,11351.36845,E,0.022,,100414,,,A*72
$GPRMC,005638.00,A,2234.97638,N,11351.36818,E,0.301,,100414,,,A*7D
$GPRMC,005639.00,A,2234.97623,N,11351.36799,E,0.293,,100414,,,A*7A
$GPRMC,005640.00,A,2234.97630,N,11351.36798,E,0.131,,100414,,,A*7C
$GPRMC,005641.00,A,2234.97631,N,11351.36783,E,0.146,,100414,,,A*76
$GPRMC,005642.00,A,2234.97637,N,11351.36775,E,0.099,,100414,,,A*79
$GPRMC,005643.00,A,2234.97646,N,11351.36762,E,0.413,,100414,,,A*7E
$GPRMC,005644.00,A,2234.97660,N,11351.36752,E,0.483,,100414,,,A*77
$GPRMC,005645.00,A,2234.97652,N,11351.36743,E,0.205,,100414,,,A*7F
$GPRMC,005646.00,A,2234.97657,N,11351.36733,E,0.362,,100414,,,A*7E
$GPRMC,005647.00,A,2234.97653,N,11351.36723,E,0.314,,100414,,,A*7B
$GPRMC,005648.00,A,2234.97648,N,11351.36714,E,0.346,,100414,,,A*7D
$GPRMC,005649.00,A,2234.97656,N,11351.36711,E,0.175,,100414,,,A*74
$GPRMC,005650.00,A,2234.97675,N,11351.36698,E,0.372,,100414,,,A*78
$GPRMC,005651.00,A,2234.97658,N,11351.36688,E,0.322,,100414,,,A*72
$GPRMC,005652.00,A,2234.97645,N,11351.36681,E,0.329,,100414,,,A*7F
$GPRMC,005653.00,A,2234.97626,N,11351.36671,E,0.150,,100414,,,A*78
$GPRMC,005654.00,A,2234.97631,N,11351.36661,E,0.254,,100414,,,A*7F
$GPRMC,005655.00,A,2234.97623,N,11351.36655,E,0.095,,100414,,,A*75
$GPRMC,005656.00,A,2234.97619,N,11351.36647,E,0.196,,100414,,,A*7E
$GPRMC,005657.00,A,2234.97603,N,11351.36648,E,0.075,,100414,,,A*77
$GPRMC,005658.00,A,2234.97602,N,11351.36639,E,0.136,,100414,,,A*79
$GPRMC,005659.00,A,2234.97583,N,11351.36633,E,0.092,,100414,,,A*77
$GPRMC,005700.00,A,2234.97574,N,11351.36628,E,0.385,,100414,,,A*7D
$GPRMC,005701.00,A,2234.97566,N,11351.36622,E,0.324,,100414,,,A*7E
$GPRMC,005702.00,A,2234.97570,N,11351.36613,E,0.406,,100414,,,A*7F
$GPRMC,005703.00,A,2234.97570,N,11351.36609,E,0.396,,100414,,,A*7B
$GPRMC,005704.00,A,2234.97565,N,11351.36604,E,0.362,,100414,,,A*7E
$GPRMC,005705.00,A,2234.97548,N,11351.36601,E,0.203,,100414,,,A*73
$GPRMC,005706.00,A,2234.97524,N,11351.36601,E,0.121,,100414,,,A*79
$GPRMC,005707.00,A,2234.97519,N,11351.36594,E,0.144,,100414,,,A*7A
$GPRMC,005708.00,A,2234.97507,N,11351.36589,E,0.347,,100414,,,A*77
$GPRMC,005709.00,A,2234.97501,N,11351.36587,E,0.389,,100414,,,A*7C
$GPRMC,005710.00,A,2234.97488,N,11351.36586,E,0.195,,100414,,,A*7A
$GPRMC,005711.00,A,2234.97474,N,11351.36587,E,0.060,,100414,,,A*72
$GPRMC,005712.00,A,2234.97458,N,11351.36589,E,0.035,,100414,,,A*71
$GPRMC,005713.00,A,2234.97439,N,11351.36591,E,0.060,,100414,,,A*7E
$GPRMC,005714.00,A,2234.97432,N,11351.36593,E,0.228,,100414,,,A*7E
$GPRMC,005715.00,A,2234.97409,N,11351.36595,E,0.251,,100414,,,A*7F
$GPRMC,005716.00,A,2234.97390,N,11351.36596,E,0.365,,100414,,,A*7E
$GPRMC,005717.00,A,2234.97413,N,11351.36604,E,0.175,,100414,,,A*78
$GPRMC,005718.00,A,2234.97429,N,11351.36614,E,0.248,,100414,,,A*72
$GPRMC,005719.00,A,2234.97441,N,11351.36627,E,0.089,,100414,,,A*72
$GPRMC,005720.00,A,2234.97453,N,11351.36641,E,0.211,,100414,,,A*78
$GPRMC,005721.00,A,2234.97450,N,11351.36666,E,0.170,,100414,,,A*7B
$GPRMC,005722.00,A,2234.97453,N,11351.36678,E,0.096,,100414,,,A*7D
$GPRMC,005723.00,A,2234.97456,N,11351.36685,E,0.144,,100414,,,A*75
$GPRMC,005724.00,A,2234.97449,N,11351.36705,E,0.189,,100414,,,A*74
$GPRMC,005725.00,A,2234.97445,N,11351.36727,E,0.083,,100414,,,A*72
$GPRMC,005726.00,A,2234.97446,N,11351.36746,E,0.256,,100414,,,A*7F
$GPRMC,005727.00,A,2234.97465,N,11351.36773,E,0.455,,100414,,,A*7C
$GPRMC,005728.00,A,2234.97482,N,11351.36798,E,0.247,,100414,,,A*7A
$GPRMC,005729.00,A,2234.97501,N,11351.36816,E,0.061,,100414,,,A*7E
$GPRMC,005730.00,A,2234.97513,N,11351.36837,E,0.008,,100414,,,A*79
$GPRMC,005731.00,A,2234.97522,N,11351.36850,E,0.249,,100414,,,A*7C
$GPRMC,005732.00,A,2234.97538,N,11351.36863,E,0.287,,100414,,,A*76
$GPRMC,005733.00,A,2234.97558,N,11351.36873,E,0.450,,100414,,,A*7C
$GPRMC,005734.00,A,2234.97569,N,11351.36898,E,0.408,,100414,,,A*71
$GPRMC,005735.00,A,2234.97587,N,11351.36932,E,0.428,,100414,,,A*73
$GPRMC,005736.00,A,2234.97594,N,11351.36948,E,0.554,,100414,,,A*75
$GPRMC,005737.00,A,2234.97595,N,11351.36955,E,0.371,,100414,,,A*78
$GPRMC,005738.00,A,2234.97597,N,11351.36963,E,0.463,,100414,,,A*74
$GPRMC,005739.00,A,2234.97603,N,11351.36969,E,0.496,,100414,,,A*7B
$GPRMC,005740.00,A,2234.97588,N,11351.36966,E,0.516,,100414,,,A*73
$GPRMC,005741.00,A,2234.97567,N,11351.36970,E,0.258,,100414,,,A*79
$GPRMC,005742.00,A,2234.97557,N,11351.36977,E,0.206,,100414,,,A*75
$GPRMC,005743.00,A,2234.97539,N,11351.36985,E,0.162,,100414,,,A*70
$GPRMC,005744.00,A,2234.97527,N,11351.36995,E,0.170,,100414,,,A*7A
$GPRMC,005745.00,A,2234.97517,N,11351.37002,E,0.257,,100414,,,A*78
$GPRMC,005746.00,A,2234.97491,N,11351.37018,E,0.373,,100414,,,A*78
$GPRMC,005747.00,A,2234.97486,N,11351.37017,E,0.111,,100414,,,A*76
$GPRMC,005748.00,A,2234.97479,N,11351.37021,E,0.079,,100414,,,A*73
$GPRMC,005749.00,A,2234.97482,N,11351.37017,E,0.105,,100414,,,A*79
$GPRMC,005750.00,A,2234.97496,N,11351.37007,E,0.153,,100414,,,A*76
$GPRMC,005751.00,A,2234.97497,N,11351.37007,E,0.183,,100414,,,A*7B
$GPRMC,005752.00,A,2234.97483,N,11351.37012,E,0.266,,100414,,,A*71
$GPRMC,005753.00,A,2234.97483,N,11351.37012,E,0.569,,100414,,,A*78
$GPRMC,005754.00,A,2234.97468,N,11351.37026,E,0.258,,100414,,,A*78
$GPRMC,005755.00,A,2234.97466,N,11351.37036,E,0.268,,100414,,,A*75
$GPRMC,005756.00,A,2234.97460,N,11351.37041,E,0.321,,100414,,,A*7C
$GPRMC,005757.00,A,2234.97463,N,11351.37051,E,0.504,,100414,,,A*7E
$GPRMC,005758.00,A,2234.97472,N,11351.37054,E,0.638,,100414,,,A*78
$GPRMC,005759.00,A,2234.97479,N,11351.37060,E,0.617,,100414,,,A*78
$GPRMC,005800.00,A,2234.97478,N,11351.37071,E,0.574,,100414,,,A*7C
$GPRMC,005801.00,A,2234.97477,N,11351.37081,E,0.695,,100414,,,A*71
$GPRMC,005802.00,A,2234.97487,N,11351.37079,E,0.930,,100414,,,A*7A
$GPRMC,005803.00,A,2234.97468,N,11351.37092,E,0.393,,100414,,,A*7C
$GPRMC,005804.00,A,2234.97449,N,11351.37107,E,0.264,,100414,,,A*7C
$GPRMC,005805.00,A,2234.97445,N,11351.37114,E,0.556,,100414,,,A*75
$GPRMC,005806.00,A,2234.97442,N,11351.37121,E,0.590,,100414,,,A*7D
$GPRMC,005807.00,A,2234.97432,N,11351.37125,E,0.402,,100414,,,A*75
$GPRMC,005808.00,A,2234.97424,N,11351.37130,E,0.174,,100414,,,A*7D
$GPRMC,005809.00,A,2234.97408,N,11351.37131,E,0.252,,100414,,,A*74
$GPRMC,005810.00,A,2234.97399,N,11351.37127,E,0.533,,100414,,,A*74
$GPRMC,005811.00,A,2234.97378,N,11351.37125,E,0.324,,100414,,,A*78
$GPRMC,005812.00,A,2234.97357,N,11351.37130,E,0.019,,100414,,,A*7F
$GPRMC,005813.00,A,2234.97341,N,11351.37128,E,0.071,,100414,,,A*7E
$GPRMC,005814.00,A,2234.97330,N,11351.37128,E,0.326,,100414,,,A*7E
$GPRMC,005815.00,A,2234.97305,N,11351.37132,E,0.242,,100414,,,A*71
$GPRMC,005816.00,A,2234.97288,N,11351.37135,E,0.232,,100414,,,A*76
$GPRMC,005817.00,A,2234.97264,N,11351.37145,E,0.129,,100414,,,A*7B
$GPRMC,005818.00,A,2234.97242,N,11351.37154,E,0.081,,100414,,,A*73
$GPRMC,005819.00,A,2234.97223,N,11351.37159,E,0.068,,100414,,,A*7F
$GPRMC,005820.00,A,2234.97197,N,11351.37171,E,0.129,,100414,,,A*77
$GPRMC,005821.00,A,2234.97176,N,11351.37179,E,0.334,,100414,,,A*7F
$GPRMC,005822.00,A,2234.97160,N,11351.37178,E,0.272,,100414,,,A*79
$GPRMC,005823.00,A,2234.97148,N,11351.37181,E,0.145,,100414,,,A*73
$GPRMC,005824.00,A,2234.97142,N,11351.37174,E,0.040,,100414,,,A*70
$GPRMC,005825.00,A,2234.97168,N,11351.37145,E,0.148,,100414,,,A*72
$GPRMC,005826.00,A,2234.97159,N,11351.37145,E,0.277,,100414,,,A*7C
$GPRMC,005827.00,A,2234.97178,N,11351.37121,E,0.111,,100414,,,A*7F
$GPRMC,005828.00,A,2234.97196,N,11351.37097,E,0.061,,100414,,,A*7A
$GPRMC,005829.00,A,2234.97224,N,11351.37073,E,0.186,,100414,,,A*73
$GPRMC,005830.00,A,2234.97244,N,11351.37048,E,0.141,,100414,,,A*7E
$GPRMC,005831.00,A,2234.97266,N,11351.37019,E,0.241,,100414,,,A*78
$GPRMC,005832.00,A,2234.97288,N,11351.36997,E,0.217,,100414,,,A*76
$GPRMC,005833.00,A,2234.97285,N,11351.36985,E,0.036,,100414,,,A*78
$GPRMC,005834.00,A,2234.97297,N,11351.36967,E,0.065,,100414,,,A*76
$GPRMC,005835.00,A,2234.97293,N,11351.36957,E,0.142,,100414,,,A*74
$GPRMC,005836.00,A,2234.97281,N,11351.36955,E,0.182,,100414,,,A*7A
$GPRMC,005837.00,A,2234.97257,N,11351.36964,E,0.312,,100414,,,A*79
$GPRMC,005838.00,A,2234.97225,N,11351.36979,E,0.477,,100414,,,A*7B
$GPRMC,005839.00,A,2234.97202,N,11351.37005,E,0.393,,100414,,,A*71
$GPRMC,005840.00,A,2234.97184,N,11351.37021,E,0.327,,100414,,,A*7B
$GPRMC,005841.00,A,2234.97167,N,11351.37036,E,0.183,,100414,,,A*7D
$GPRMC,005842.00,A,2234.97138,N,11351.37059,E,0.042,,100414,,,A*71
$GPRMC,005843.00,A,2234.97127,N,11351.37079,E,0.090,,100414,,,A*73
$GPRMC,005844.00,A,2234.97111,N,11351.37101,E,0.045,,100414,,,A*77
$GPRMC,005845.00,A,2234.97083,N,11351.37129,E,0.172,,100414,,,A*73
$GPRMC,005846.00,A,2234.97062,N,11351.37149,E,0.070,,100414,,,A*7A
$GPRMC,005847.00,A,2234.97072,N,11351.37171,E,0.331,,100414,,,A*77
$GPRMC,005848.00,A,2234.97061,N,11351.37189,E,0.071,,100414,,,A*7A
$GPRMC,005849.00,A,2234.97066,N,11351.37204,E,0.356,,100414,,,A*7C
$GPRMC,005850.00,A,2234.97054,N,11351.37224,E,0.448,,100414,,,A*7F
