$GPRMC,132926.00,A,2234.95415,N,11351.35923,E,0.117,,010414,,,A*78
$GPRMC,132927.00,A,2234.95029,N,11351.35887,E,0.139,,010414,,,A*71
$GPRMC,132928.00,A,2234.94896,N,11351.35910,E,0.199,,010414,,,A*76
$GPRMC,132929.00,A,2234.96846,N,11351.35601,E,0.071,,010414,,,A*70
$GPRMC,132930.00,A,2234.97800,N,11351.35395,E,0.108,,010414,,,A*7C
$GPRMC,132931.00,A,2234.98114,N,11351.35321,E,0.157,,010414,,,A*7B
$GPRMC,132932.00,A,2234.98324,N,11351.35277,E,0.979,,010414,,,A*7F
$GPRMC,132933.00,A,2234.98424,N,11351.35255,E,1.107,,010414,,,A*79
$GPRMC,132934.00,A,2234.98413,N,11351.35247,E,0.639,,010414,,,A*72
$GPRMC,132935.00,A,2234.98143,N,11351.35125,E,0.155,,010414,,,A*79
$GPRMC,132936.00,A,2234.97947,N,11351.35060,E,0.670,,010414,,,A*79
$GPRMC,132937.00,A,2234.97755,N,11351.35008,E,0.725,,010414,,,A*7A
$GPRMC,132938.00,A,2234.97601,N,11351.34956,E,0.845,,010414,,,A*7F
$GPRMC,132939.00,A,2234.97523,N,11351.34932,E,0.665,,010414,,,A*73
$GPRMC,132940.00,A,2234.97396,N,11351.34880,E,0.147,,010414,,,A*7A
$GPRMC,132941.00,A,2234.97257,N,11351.34847,E,0.384,,010414,,,A*71
$GPRMC,132942.00,A,2234.97148,N,11351.34788,E,0.547,,010414,,,A*7A
$GPRMC,132943.00,A,2234.97076,N,11351.34791,E,0.151,,010414,,,A*7C
$GPRMC,132944.00,A,2234.97020,N,11351.34816,E,0.439,,010414,,,A*73
$GPRMC,132945.00,A,2234.96967,N,11351.34837,E,0.461,,010414,,,A*77
$GPRMC,132946.00,A,2234.96927,N,11351.34873,E,0.708,,010414,,,A*7C
$GPRMC,132947.00,A,2234.96861,N,11351.34896,E,0.640,,010414,,,A*78
$GPRMC,132948.00,A,2234.96832,N,11351.34925,E,0.335,,010414,,,A*7F
$GPRMC,132949.00,A,2234.96814,N,11351.34953,E,0.402,,010414,,,A*78
$GPRMC,132950.00,A,2234.96800,N,11351.34988,E,0.578,,010414,,,A*7F
$GPRMC,132951.00,A,2234.96779,N,11351.35022,E,0.448,,010414,,,A*75
$GPRMC,132952.00,A,2234.96766,N,11351.35062,E,0.091,,010414,,,A*7C
$GPRMC,132953.00,A,2234.96768,N,11351.35096,E,0.108,,010414,,,A*79
$GPRMC,132954.00,A,2234.96755,N,11351.35123,E,0.470,,010414,,,A*75
$GPRMC,132955.00,A,2234.96738,N,11351.35146,E,0.159,,010414,,,A*72
$GPRMC,132956.00,A,2234.96682,N,11351.35164,E,0.134,,010414,,,A*7A
$GPRMC,132957.00,A,2234.96684,N,11351.35176,E,0.101,,010414,,,A*78
$GPRMC,132958.00,A,2234.96697,N,11351.35185,E,0.189,,010414,,,A*79
$GPRMC,132959.00,A,2234.96693,N,11351.35197,E,0.135,,010414,,,A*78
$GPRMC,133000.00,A,2234.96690,N,11351.35208,E,0.206,,010414,,,A*79
$GPRMC,133001.00,A,2234.96682,N,11351.35215,E,0.250,,010414,,,A*74
$GPRMC,133002.00,A,2234.96677,N,11351.35227,E,0.081,,010414,,,A*72
$GPRMC,133003.00,A,2234.96690,N,11351.35289,E,0.977,,010414,,,A*7E
$GPRMC,133004.00,A,2234.96696,N,11351.35327,E,0.175,,010414,,,A*70
$GPRMC,133005.00,A,2234.96743,N,11351.35355,E,0.148,,010414,,,A*73
$GPRMC,133006.00,A,2234.96742,N,11351.35372,E,0.390,,010414,,,A*73
$GPRMC,133007.00,A,2234.96750,N,11351.35408,E,0.326,,010414,,,A*76
$GPRMC,133008.00,A,2234.96751,N,11351.35415,E,0.074,,010414,,,A*70
$GPRMC,133009.00,A,2234.96739,N,11351.35417,E,0.147,,010414,,,A*7C
$GPRMC,133010.00,A,2234.96734,N,11351.35421,E,0.186,,010414,,,A*71
$GPRMC,133011.00,A,2234.96734,N,11351.35421,E,0.168,,010414,,,A*70
$GPRMC,133012.00,A,2234.96740,N,11351.35426,E,0.196,,010414,,,A*76
$GPRMC,133013.00,A,2234.96746,N,11351.35434,E,0.280,,010414,,,A*76
$GPRMC,133014.00,A,2234.96752,N,11351.35445,E,0.213,,010414,,,A*78
$GPRMC,133015.00,A,2234.96743,N,11351.35476,E,0.877,,010414,,,A*71
$GPRMC,133016.00,A,2234.96736,N,11351.35493,E,0.116,,010414,,,A*75
$GPRMC,133017.00,A,2234.96737,N,11351.35510,E,0.149,,010414,,,A*75
$GPRMC,133018.00,A,2234.96739,N,11351.35518,E,0.126,,010414,,,A*75
$GPRMC,133019.00,A,2234.96744,N,11351.35522,E,0.103,,010414,,,A*70
$GPRMC,133020.00,A,2234.96736,N,11351.35523,E,0.289,,010414,,,A*7F
$GPRMC,133021.00,A,2234.96701,N,11351.35517,E,0.444,,010414,,,A*7A
$GPRMC,133022.00,A,2234.96700,N,11351.35528,E,0.337,,010414,,,A*77
$GPRMC,133023.00,A,2234.96693,N,11351.35544,E,0.103,,010414,,,A*72
$GPRMC,133024.00,A,2234.96667,N,11351.35539,E,0.965,,010414,,,A*7C
$GPRMC,133025.00,A,2234.96664,N,11351.35518,E,0.424,,010414,,,A*75
$GPRMC,133026.00,A,2234.96687,N,11351.35518,E,0.321,,010414,,,A*79
$GPRMC,133027.00,A,2234.96691,N,11351.35506,E,0.047,,010414,,,A*73
$GPRMC,133028.00,A,2234.96653,N,11351.35453,E,0.408,,010414,,,A*7C
$GPRMC,133029.00,A,2234.96649,N,11351.35425,E,0.340,,010414,,,A*7C
$GPRMC,133030.00,A,2234.96662,N,11351.35415,E,0.566,,010414,,,A*7C
$GPRMC,133031.00,A,2234.96693,N,11351.35405,E,0.636,,010414,,,A*74
$GPRMC,133032.00,A,2234.96725,N,11351.35412,E,1.066,,010414,,,A*7F
$GPRMC,133033.00,A,2234.96742,N,11351.35394,E,0.558,,010414,,,A*7F
$GPRMC,133034.00,A,2234.96795,N,11351.35399,E,0.734,,010414,,,A*77
$GPRMC,133035.00,A,2234.96832,N,11351.35413,E,0.587,,010414,,,A*7B
$GPRMC,133036.00,A,2234.96862,N,11351.35410,E,0.472,,010414,,,A*75
$GPRMC,133037.00,A,2234.96833,N,11351.35375,E,0.682,,010414,,,A*79
$GPRMC,133038.00,A,2234.96848,N,11351.35400,E,0.559,,010414,,,A*7A
$GPRMC,133039.00,A,2234.96856,N,11351.35423,E,0.147,,010414,,,A*7E
$GPRMC,133040.00,A,2234.96860,N,11351.35443,E,0.198,,010414,,,A*71
$GPRMC,133041.00,A,2234.96865,N,11351.35465,E,0.172,,010414,,,A*75
$GPRMC,133042.00,A,2234.96860,N,11351.35489,E,0.211,,010414,,,A*77
$GPRMC,133043.00,A,2234.96862,N,11351.35490,E,0.406,,010414,,,A*7C
$GPRMC,133044.00,A,2234.96855,N,11351.35503,E,0.243,,010414,,,A*73
$GPRMC,133045.00,A,2234.96851,N,11351.35530,E,0.180,,010414,,,A*7A
$GPRMC,133046.00,A,2234.96866,N,11351.35549,E,0.502,,010414,,,A*7D
$GPRMC,133047.00,A,2234.96857,N,11351.35576,E,0.197,,010414,,,A*7A
$GPRMC,133048.00,A,2234.96852,N,11351.35584,E,0.206,,010414,,,A*76
$GPRMC,133049.00,A,2234.96843,N,11351.35600,E,0.318,,010414,,,A*76
$GPRMC,133050.00,A,2234.96866,N,11351.35611,E,0.527,,010414,,,A*73
$GPRMC,133051.00,A,2234.96907,N,11351.35613,E,1.140,,010414,,,A*72
$GPRMC,133052.00,A,2234.96922,N,11351.35620,E,0.483,,010414,,,A*7D
$GPRMC,133053.00,A,2234.96915,N,11351.35631,E,0.147,,010414,,,A*75
$GPRMC,133054.00,A,2234.96908,N,11351.35636,E,0.261,,010414,,,A*7E
$GPRMC,133055.00,A,2234.96922,N,11351.35643,E,0.627,,010414,,,A*73
$GPRMC,133056.00,A,2234.96929,N,11351.35658,E,0.250,,010414,,,A*75
$GPRMC,133057.00,A,2234.96935,N,11351.35690,E,0.512,,010414,,,A*7C
$GPRMC,133058.00,A,2234.96928,N,11351.35714,E,0.325,,010414,,,A*70
$GPRMC,133059.00,A,2234.96922,N,11351.35734,E,0.199,,010414,,,A*7C
$GPRMC,133100.00,A,2234.96904,N,11351.35746,E,0.621,,010414,,,A*74
$GPRMC,133101.00,A,2234.96889,N,11351.35758,E,0.821,,010414,,,A*70
$GPRMC,133102.00,A,2234.96868,N,11351.35760,E,0.483,,010414,,,A*73
$GPRMC,133103.00,A,2234.96861,N,11351.35754,E,0.151,,010414,,,A*76
$GPRMC,133104.00,A,2234.96849,N,11351.35758,E,0.361,,010414,,,A*76
$GPRMC,133105.00,A,2234.96822,N,11351.35763,E,0.806,,010414,,,A*78
$GPRMC,133106.00,A,2234.96792,N,11351.35752,E,1.159,,010414,,,A*7F
$GPRMC,133107.00,A,2234.96767,N,11351.35739,E,1.130,,010414,,,A*76
$GPRMC,133108.00,A,2234.96752,N,11351.35736,E,0.508,,010414,,,A*7E
$GPRMC,133109.00,A,2234.96732,N,11351.35744,E,0.499,,010414,,,A*75
$GPRMC,133110.00,A,2234.96723,N,11351.35742,E,0.350,,010414,,,A*79
$GPRMC,133111.00,A,2234.96725,N,11351.35736,E,0.329,,010414,,,A*73
$GPRMC,133112.00,A,2234.96726,N,11351.35720,E,0.309,,010414,,,A*76
$GPRMC,133113.00,A,2234.96681,N,11351.35642,E,0.387,,010414,,,A*78
$GPRMC,133114.00,A,2234.96683,N,11351.35641,E,0.529,,010414,,,A*7C
$GPRMC,133115.00,A,2234.96702,N,11351.35649,E,0.995,,010414,,,A*76
$GPRMC,133116.00,A,2234.96693,N,11351.35626,E,0.505,,010414,,,A*70
$GPRMC,133117.00,A,2234.96730,N,11351.35642,E,0.640,,010414,,,A*79
$GPRMC,133118.00,A,2234.96720,N,11351.35619,E,0.164,,010414,,,A*78
$GPRMC,133119.00,A,2234.96728,N,11351.35604,E,0.399,,010414,,,A*7D
$GPRMC,133120.00,A,2234.96740,N,11351.35580,E,0.741,,010414,,,A*77
$GPRMC,133121.00,A,2234.96747,N,11351.35576,E,0.410,,010414,,,A*7F
$GPRMC,133122.00,A,2234.96757,N,11351.35580,E,0.082,,010414,,,A*7B
$GPRMC,133123.00,A,2234.96775,N,11351.35597,E,0.284,,010414,,,A*78
$GPRMC,133124.00,A,2234.96791,N,11351.35587,E,0.539,,010414,,,A*75
$GPRMC,133125.00,A,2234.96828,N,11351.35557,E,0.493,,010414,,,A*75
$GPRMC,133126.00,A,2234.96877,N,11351.35532,E,0.461,,010414,,,A*72
$GPRMC,133127.00,A,2234.96891,N,11351.35512,E,0.349,,010414,,,A*74
$GPRMC,133128.00,A,2234.96906,N,11351.35500,E,0.471,,010414,,,A*7B
$GPRMC,133129.00,A,2234.96924,N,11351.35499,E,0.453,,010414,,,A*7B
$GPRMC,133130.00,A,2234.96928,N,11351.35510,E,0.493,,010414,,,A*73
$GPRMC,133131.00,A,2234.96961,N,11351.35502,E,0.469,,010414,,,A*79
$GPRMC,133132.00,A,2234.97075,N,11351.35534,E,0.592,,010414,,,A*77
$GPRMC,133133.00,A,2234.97094,N,11351.35532,E,0.512,,010414,,,A*77
$GPRMC,133134.00,A,2234.97131,N,11351.35545,E,0.309,,010414,,,A*72
$GPRMC,133135.00,A,2234.97164,N,11351.35567,E,0.272,,010414,,,A*7E
$GPRMC,133136.00,A,2234.97220,N,11351.35592,E,0.431,,010414,,,A*75
$GPRMC,133137.00,A,2234.97235,N,11351.35623,E,0.193,,010414,,,A*74
$GPRMC,133138.00,A,2234.97297,N,11351.35664,E,0.212,,010414,,,A*7A
$GPRMC,133139.00,A,2234.97365,N,11351.35690,E,0.217,,010414,,,A*79
$GPRMC,133140.00,A,2234.97391,N,11351.35689,E,0.215,,010414,,,A*76
$GPRMC,133141.00,A,2234.97422,N,11351.35690,E,0.204,,010414,,,A*70
$GPRMC,133142.00,A,2234.97411,N,11351.35694,E,0.141,,010414,,,A*75
$GPRMC,133143.00,A,2234.97459,N,11351.35734,E,0.208,,010414,,,A*7D
$GPRMC,133144.00,A,2234.97496,N,11351.35747,E,0.505,,010414,,,A*77
$GPRMC,133145.00,A,2234.97494,N,11351.35745,E,0.478,,010414,,,A*7D
$GPRMC,133146.00,A,2234.97490,N,11351.35749,E,0.249,,010414,,,A*72
$GPRMC,133147.00,A,2234.97485,N,11351.35753,E,0.245,,010414,,,A*70
$GPRMC,133148.00,A,2234.97478,N,11351.35733,E,0.475,,010414,,,A*7E
$GPRMC,133149.00,A,2234.97470,N,11351.35713,E,0.433,,010414,,,A*77
$GPRMC,133150.00,A,2234.97460,N,11351.35694,E,0.286,,010414,,,A*78
$GPRMC,133151.00,A,2234.97524,N,11351.35708,E,0.353,,010414,,,A*75
$GPRMC,133152.00,A,2234.97623,N,11351.35674,E,0.338,,010414,,,A*75
$GPRMC,133153.00,A,2234.97672,N,11351.35605,E,0.312,,010414,,,A*7E
$GPRMC,133154.00,A,2234.97660,N,11351.35587,E,0.171,,010414,,,A*74
$GPRMC,133155.00,A,2234.97737,N,11351.35561,E,0.187,,010414,,,A*77
$GPRMC,133156.00,A,2234.97833,N,11351.35532,E,0.265,,010414,,,A*76
$GPRMC,133157.00,A,2234.97903,N,11351.35502,E,0.418,,010414,,,A*7A
$GPRMC,133158.00,A,2234.97930,N,11351.35461,E,0.385,,010414,,,A*72
$GPRMC,133159.00,A,2234.97924,N,11351.35452,E,0.354,,010414,,,A*7A
$GPRMC,133200.00,A,2234.97913,N,11351.35422,E,0.256,,010414,,,A*75
$GPRMC,133201.00,A,2234.97949,N,11351.35415,E,0.501,,010414,,,A*7A
$GPRMC,133202.00,A,2234.98015,N,11351.35391,E,0.535,,010414,,,A*7A
$GPRMC,133203.00,A,2234.98015,N,11351.35393,E,0.485,,010414,,,A*73
$GPRMC,133204.00,A,2234.98064,N,11351.35330,E,0.840,,010414,,,A*7E
$GPRMC,133205.00,A,2234.98075,N,11351.35347,E,0.830,,010414,,,A*78
$GPRMC,133206.00,A,2234.98077,N,11351.35342,E,0.736,,010414,,,A*75
$GPRMC,133207.00,A,2234.98196,N,11351.35326,E,0.445,,010414,,,A*7F
$GPRMC,133208.00,A,2234.98201,N,11351.35324,E,0.608,,010414,,,A*74
$GPRMC,133209.00,A,2234.98289,N,11351.35312,E,0.964,,010414,,,A*75
$GPRMC,133210.00,A,2234.98457,N,11351.35287,E,0.937,,010414,,,A*73
$GPRMC,133211.00,A,2234.98589,N,11351.35275,E,0.140,,010414,,,A*75
$GPRMC,133212.00,A,2234.98440,N,11351.35268,E,0.113,,010414,,,A*78
$GPRMC,133213.00,A,2234.98270,N,11351.35266,E,0.135,,010414,,,A*76
$GPRMC,133214.00,A,2234.98151,N,11351.35262,E,0.181,,010414,,,A*7A
$GPRMC,133215.00,A,2234.98105,N,11351.35275,E,0.068,,010414,,,A*7A
$GPRMC,133216.00,A,2234.98155,N,11351.35269,E,0.433,,010414,,,A*7B
$GPRMC,133217.00,A,2234.98169,N,11351.35286,E,0.344,,010414,,,A*73
$GPRMC,133218.00,A,2234.98198,N,11351.35304,E,0.479,,010414,,,A*70
$GPRMC,133219.00,A,2234.98230,N,11351.35315,E,0.399,,010414,,,A*79
$GPRMC,133220.00,A,2234.98258,N,11351.35327,E,0.389,,010414,,,A*7D
$GPRMC,133221.00,A,2234.98309,N,11351.35334,E,0.946,,010414,,,A*72
$GPRMC,133222.00,A,2234.98314,N,11351.35339,E,0.680,,010414,,,A*75
$GPRMC,133223.00,A,2234.98295,N,11351.35343,E,0.047,,010414,,,A*7C
$GPRMC,133224.00,A,2234.98317,N,11351.35344,E,0.130,,010414,,,A*76
$GPRMC,133225.00,A,2234.98345,N,11351.35333,E,0.326,,010414,,,A*75
$GPRMC,133226.00,A,2234.98223,N,11351.35308,E,0.054,,010414,,,A*79
$GPRMC,133227.00,A,2234.98142,N,11351.35308,E,0.325,,010414,,,A*79
$GPRMC,133228.00,A,2234.98054,N,11351.35277,E,0.030,,010414,,,A*7E
$GPRMC,133229.00,A,2234.97960,N,11351.35265,E,0.117,,010414,,,A*79
$GPRMC,133230.00,A,2234.97885,N,11351.35253,E,0.264,,010414,,,A*79
$GPRMC,133231.00,A,2234.97745,N,11351.35240,E,0.383,,010414,,,A*71
$GPRMC,133232.00,A,2234.97652,N,11351.35241,E,0.242,,010414,,,A*78
$GPRMC,133233.00,A,2234.97554,N,11351.35238,E,0.124,,010414,,,A*71
$GPRMC,133234.00,A,2234.97450,N,11351.35238,E,0.094,,010414,,,A*79
$GPRMC,133235.00,A,2234.97347,N,11351.35235,E,0.059,,010414,,,A*75
$GPRMC,133236.00,A,2234.97220,N,11351.35238,E,0.422,,010414,,,A*73
$GPRMC,133237.00,A,2234.97079,N,11351.35239,E,0.561,,010414,,,A*7B
$GPRMC,133238.00,A,2234.96951,N,11351.35237,E,0.314,,010414,,,A*7C
$GPRMC,133239.00,A,2234.96841,N,11351.35241,E,0.284,,010414,,,A*74
$GPRMC,133240.00,A,2234.96738,N,11351.35227,E,0.629,,010414,,,A*78
$GPRMC,133241.00,A,2234.96664,N,11351.35215,E,0.581,,010414,,,A*71
$GPRMC,133242.00,A,2234.96552,N,11351.35165,E,1.207,,010414,,,A*78
$GPRMC,133243.00,A,2234.96462,N,11351.35144,E,1.018,,010414,,,A*74
$GPRMC,133244.00,A,2234.96384,N,11351.35153,E,0.803,,010414,,,A*79
$GPRMC,133245.00,A,2234.96328,N,11351.35164,E,0.545,,010414,,,A*75
$GPRMC,133246.00,A,2234.96293,N,11351.35163,E,0.525,,010414,,,A*76
$GPRMC,133247.00,A,2234.96254,N,11351.35158,E,0.624,,010414,,,A*76
$GPRMC,133248.00,A,2234.96241,N,11351.35192,E,0.447,,010414,,,A*7C
$GPRMC,133249.00,A,2234.96207,N,11351.35209,E,0.711,,010414,,,A*7E
$GPRMC,133250.00,A,2234.96187,N,11351.35241,E,0.360,,010414,,,A*73
$GPRMC,133251.00,A,2234.96139,N,11351.35222,E,0.436,,010414,,,A*76
$GPRMC,133252.00,A,2234.96093,N,11351.35216,E,0.305,,010414,,,A*74
$GPRMC,133253.00,A,2234.96051,N,11351.35262,E,0.556,,010414,,,A*78
$GPRMC,133254.00,A,2234.95965,N,11351.35265,E,0.683,,010414,,,A*7E
$GPRMC,133255.00,A,2234.95914,N,11351.35252,E,0.448,,010414,,,A*78
$GPRMC,133256.00,A,2234.95861,N,11351.35202,E,0.042,,010414,,,A*73
$GPRMC,133257.00,A,2234.95815,N,11351.35168,E,0.252,,010414,,,A*7D
$GPRMC,133258.00,A,2234.95752,N,11351.35115,E,0.254,,010414,,,A*72
$GPRMC,133259.00,A,2234.95733,N,11351.35097,E,0.180,,010414,,,A*75
$GPRMC,133300.00,A,2234.95715,N,11351.35091,E,0.148,,010414,,,A*7E
$GPRMC,133301.00,A,2234.95662,N,11351.35065,E,0.633,,010414,,,A*7E
$GPRMC,133302.00,A,2234.95635,N,11351.35047,E,0.398,,010414,,,A*7B
$GPRMC,133303.00,A,2234.95617,N,11351.35012,E,0.156,,010414,,,A*7A
$GPRMC,133304.00,A,2234.95607,N,11351.34991,E,0.128,,010414,,,A*76
$GPRMC,133305.00,A,2234.95586,N,11351.34973,E,0.036,,010414,,,A*7F
$GPRMC,133306.00,A,2234.95567,N,11351.34968,E,0.083,,010414,,,A*77
$GPRMC,133307.00,A,2234.95560,N,11351.34984,E,0.178,,010414,,,A*76
$GPRMC,133308.00,A,2234.95596,N,11351.35004,E,0.092,,010414,,,A*75
$GPRMC,133309.00,A,2234.95641,N,11351.35028,E,0.131,,010414,,,D*7E
$GPRMC,133310.00,A,2234.95652,N,11351.35038,E,0.071,,010414,,,D*70
$GPRMC,133311.00,A,2234.95672,N,11351.35061,E,0.109,,010414,,,D*71
$GPRMC,133312.00,A,2234.95684,N,11351.35081,E,0.126,,010414,,,D*78
$GPRMC,133313.00,A,2234.95703,N,11351.35097,E,0.152,,010414,,,D*73
$GPRMC,133314.00,A,2234.95680,N,11351.35118,E,1.170,176.68,010414,,,D*69
$GPRMC,133315.00,A,2234.95694,N,11351.35146,E,0.700,,010414,,,D*76
$GPRMC,133316.00,A,2234.95740,N,11351.35165,E,0.152,,010414,,,D*7D
$GPRMC,133317.00,A,2234.95770,N,11351.35189,E,0.065,,010414,,,D*78
$GPRMC,133318.00,A,2234.95812,N,11351.35204,E,0.148,,010414,,,D*74
$GPRMC,133319.00,A,2234.95834,N,11351.35213,E,0.167,,010414,,,D*7A
$GPRMC,133320.00,A,2234.95858,N,11351.35220,E,0.074,,010414,,,D*79
$GPRMC,133321.00,A,2234.95879,N,11351.35239,E,0.163,,010414,,,D*74
$GPRMC,133322.00,A,2234.95893,N,11351.35257,E,0.402,,010414,,,D*79
$GPRMC,133323.00,A,2234.95914,N,11351.35269,E,0.448,,010414,,,D*75
$GPRMC,133324.00,A,2234.95963,N,11351.35261,E,0.157,,010414,,,D*71
$GPRMC,133325.00,A,2234.95970,N,11351.35265,E,0.201,,010414,,,D*76
$GPRMC,133326.00,A,2234.95990,N,11351.35273,E,0.488,,010414,,,D*7B
$GPRMC,133327.00,A,2234.96030,N,11351.35300,E,0.509,,010414,,,D*77
$GPRMC,133328.00,A,2234.96083,N,11351.35317,E,0.142,,010414,,,D*7D
$GPRMC,133329.00,A,2234.96147,N,11351.35344,E,0.227,,010414,,,D*73
$GPRMC,133330.00,A,2234.96181,N,11351.35364,E,0.117,,010414,,,A*76
$GPRMC,133331.00,A,2234.96191,N,11351.35370,E,0.237,,010414,,,A*72
$GPRMC,133332.00,A,2234.96182,N,11351.35377,E,0.329,,010414,,,A*7A
$GPRMC,133333.00,A,2234.96168,N,11351.35373,E,0.096,,010414,,,A*7C
$GPRMC,133334.00,A,2234.96174,N,11351.35373,E,0.071,,010414,,,A*7F
$GPRMC,133335.00,A,2234.96152,N,11351.35369,E,0.578,,010414,,,A*7D
$GPRMC,133336.00,A,2234.96159,N,11351.35352,E,0.370,,010414,,,A*73
$GPRMC,133337.00,A,2234.96167,N,11351.35338,E,0.012,,010414,,,A*74
$GPRMC,133338.00,A,2234.96170,N,11351.35317,E,0.149,,010414,,,A*7F
$GPRMC,133339.00,A,2234.96171,N,11351.35303,E,0.116,,010414,,,A*70
$GPRMC,133340.00,A,2234.96175,N,11351.35287,E,0.088,,010414,,,A*71
$GPRMC,133341.00,A,2234.96210,N,11351.35281,E,0.284,,010414,,,A*78
$GPRMC,133342.00,A,2234.96241,N,11351.35291,E,0.274,,010414,,,A*71
$GPRMC,133343.00,A,2234.96279,N,11351.35297,E,0.110,,010414,,,A*7C
$GPRMC,133344.00,A,2234.96325,N,11351.35305,E,0.081,,010414,,,A*70
$GPRMC,133345.00,A,2234.96358,N,11351.35310,E,0.094,,010414,,,A*7B
$GPRMC,133346.00,A,2234.96391,N,11351.35317,E,0.181,,010414,,,A*7F
$GPRMC,133347.00,A,2234.96404,N,11351.35308,E,0.055,,010414,,,A*73
$GPRMC,133348.00,A,2234.96399,N,11351.35302,E,0.266,,010414,,,A*77
$GPRMC,133349.00,A,2234.96402,N,11351.35302,E,0.276,,010414,,,A*72
$GPRMC,133350.00,A,2234.96402,N,11351.35293,E,0.102,,010414,,,A*73
$GPRMC,133351.00,A,2234.96403,N,11351.35280,E,0.265,,010414,,,A*73
$GPRMC,133352.00,A,2234.96389,N,11351.35279,E,0.330,,010414,,,A*72
$GPRMC,133353.00,A,2234.96367,N,11351.35280,E,0.668,,010414,,,A*7D
$GPRMC,133354.00,A,2234.96366,N,11351.35283,E,0.254,,010414,,,A*73
$GPRMC,133355.00,A,2234.96347,N,11351.35285,E,0.313,,010414,,,A*75
$GPRMC,133356.00,A,2234.96327,N,11351.35289,E,0.585,,010414,,,A*75
$GPRMC,133357.00,A,2234.96329,N,11351.35291,E,0.524,,010414,,,A*78
$GPRMC,133358.00,A,2234.96335,N,11351.35268,E,0.139,,010414,,,A*74
$GPRMC,133359.00,A,2234.96318,N,11351.35241,E,0.107,,010414,,,A*7C
$GPRMC,133400.00,A,2234.96301,N,11351.35228,E,0.045,,010414,,,A*77
$GPRMC,133401.00,A,2234.96284,N,11351.35216,E,0.106,,010414,,,A*71
$GPRMC,133402.00,A,2234.96276,N,11351.35218,E,0.174,,010414,,,A*74
$GPRMC,133403.00,A,2234.96307,N,11351.35227,E,0.216,,010414,,,A*79
$GPRMC,133404.00,A,2234.96300,N,11351.35214,E,0.152,,010414,,,A*7A
$GPRMC,133405.00,A,2234.96304,N,11351.35175,E,0.084,,010414,,,A*71
$GPRMC,133406.00,A,2234.96336,N,11351.35165,E,0.074,,010414,,,A*7D
$GPRMC,133407.00,A,2234.96352,N,11351.35171,E,0.121,,010414,,,A*7A
$GPRMC,133408.00,A,2234.96380,N,11351.35156,E,0.143,,010414,,,A*7B
$GPRMC,133409.00,A,2234.96402,N,11351.35147,E,0.068,,010414,,,A*7F
$GPRMC,133410.00,A,2234.96413,N,11351.35139,E,0.020,,010414,,,A*72
$GPRMC,133411.00,A,2234.96429,N,11351.35132,E,0.007,,010414,,,A*74
$GPRMC,133412.00,A,2234.96423,N,11351.35125,E,0.059,,010414,,,A*70
$GPRMC,133413.00,A,2234.96412,N,11351.35114,E,0.077,,010414,,,A*7D
$GPRMC,133414.00,A,2234.96407,N,11351.35109,E,0.021,,010414,,,A*71
$GPRMC,133415.00,A,2234.96409,N,11351.35110,E,0.054,,010414,,,A*74
$GPRMC,133416.00,A,2234.96416,N,11351.35111,E,0.154,,010414,,,A*79
$GPRMC,133417.00,A,2234.96417,N,11351.35110,E,0.170,,010414,,,A*7E
$GPRMC,133418.00,A,2234.96412,N,11351.35106,E,0.100,,010414,,,A*74
$GPRMC,133419.00,A,2234.96427,N,11351.35104,E,0.225,,010414,,,A*75
$GPRMC,133420.00,A,2234.96424,N,11351.35101,E,0.098,,010414,,,A*7D
$GPRMC,133421.00,A,2234.96419,N,11351.35096,E,0.020,,010414,,,A*7E
$GPRMC,133422.00,A,2234.96432,N,11351.35079,E,0.311,,010414,,,A*74
$GPRMC,133423.00,A,2234.96435,N,11351.35056,E,0.091,,010414,,,A*74
$GPRMC,133424.00,A,2234.96432,N,11351.35025,E,0.107,,010414,,,A*7E
$GPRMC,133425.00,A,2234.96433,N,11351.34991,E,0.360,,010414,,,A*7A
$GPRMC,133426.00,A,2234.96448,N,11351.34966,E,0.250,,010414,,,A*7F
$GPRMC,133427.00,A,2234.96446,N,11351.34947,E,0.147,,010414,,,A*76
$GPRMC,133428.00,A,2234.96445,N,11351.34926,E,0.076,,010414,,,A*7E
$GPRMC,133429.00,A,2234.96457,N,11351.34915,E,0.031,,010414,,,A*7F
$GPRMC,133430.00,A,2234.96456,N,11351.34911,E,0.042,,010414,,,A*76
$GPRMC,133431.00,A,2234.96445,N,11351.34908,E,0.261,,010414,,,A*7E
$GPRMC,133432.00,A,2234.96431,N,11351.34905,E,0.335,,010414,,,A*73
$GPRMC,133433.00,A,2234.96421,N,11351.34898,E,0.135,,010414,,,A*74
$GPRMC,133434.00,A,2234.96414,N,11351.34895,E,0.237,,010414,,,A*79
$GPRMC,133435.00,A,2234.96416,N,11351.34890,E,0.257,,010414,,,A*79
$GPRMC,133436.00,A,2234.96403,N,11351.34876,E,0.342,,010414,,,A*73
$GPRMC,133437.00,A,2234.96396,N,11351.34869,E,0.260,,010414,,,A*76
$GPRMC,133438.00,A,2234.96397,N,11351.34860,E,0.072,,010414,,,A*70
$GPRMC,133439.00,A,2234.96409,N,11351.34860,E,0.089,,010414,,,A*75
$GPRMC,133440.00,A,2234.96393,N,11351.34864,E,0.586,,010414,,,A*71
$GPRMC,133441.00,A,2234.96375,N,11351.34864,E,0.492,,010414,,,A*7C
$GPRMC,133442.00,A,2234.96368,N,11351.34859,E,0.181,,010414,,,A*7A
$GPRMC,133443.00,A,2234.96361,N,11351.34851,E,0.145,,010414,,,A*72
$GPRMC,133444.00,A,2234.96365,N,11351.34840,E,0.034,,010414,,,A*76
$GPRMC,133445.00,A,2234.96364,N,11351.34832,E,0.199,,010414,,,A*75
$GPRMC,133446.00,A,2234.96371,N,11351.34830,E,0.049,,010414,,,A*7C
$GPRMC,133447.00,A,2234.96373,N,11351.34825,E,0.081,,010414,,,A*7F
$GPRMC,133448.00,A,2234.96373,N,11351.34816,E,0.089,,010414,,,A*78
$GPRMC,133449.00,A,2234.96386,N,11351.34813,E,0.240,,010414,,,A*71
$GPRMC,133450.00,A,2234.96397,N,11351.34812,E,0.174,,010414,,,A*7C
$GPRMC,133451.00,A,2234.96419,N,11351.34808,E,0.267,,010414,,,A*76
$GPRMC,133452.00,A,2234.96403,N,11351.34793,E,0.044,,010414,,,A*70
$GPRMC,133453.00,A,2234.96398,N,11351.34783,E,0.085,,010414,,,A*78
$GPRMC,133454.00,A,2234.96393,N,11351.34776,E,0.108,,010414,,,A*7A
$GPRMC,133455.00,A,2234.96388,N,11351.34767,E,0.097,,010414,,,A*76
$GPRMC,133456.00,A,2234.96380,N,11351.34754,E,0.117,,010414,,,A*74
$GPRMC,133457.00,A,2234.96374,N,11351.34744,E,0.131,,010414,,,A*7B
$GPRMC,133458.00,A,2234.96367,N,11351.34740,E,0.383,,010414,,,A*79
$GPRMC,133459.00,A,2234.96383,N,11351.34738,E,0.107,,010414,,,A*73
$GPRMC,133500.00,A,2234.96379,N,11351.34734,E,0.073,,010414,,,A*75
$GPRMC,133501.00,A,2234.96377,N,11351.34732,E,0.095,,010414,,,A*74
$GPRMC,133502.00,A,2234.96370,N,11351.34732,E,0.332,,010414,,,A*7E
$GPRMC,133503.00,A,2234.96375,N,11351.34732,E,0.041,,010414,,,A*7D
$GPRMC,133504.00,A,2234.96403,N,11351.34735,E,0.757,,010414,,,A*7B
$GPRMC,133505.00,A,2234.96426,N,11351.34732,E,0.949,,010414,,,A*7B
$GPRMC,133506.00,A,2234.96430,N,11351.34733,E,0.603,,010414,,,A*7F
$GPRMC,133507.00,A,2234.96395,N,11351.34736,E,0.170,,010414,,,A*70
$GPRMC,133508.00,A,2234.96367,N,11351.34740,E,0.114,,010414,,,A*71
$GPRMC,133509.00,A,2234.96367,N,11351.34745,E,0.056,,010414,,,A*72
$GPRMC,133510.00,A,2234.96365,N,11351.34749,E,0.344,,010414,,,A*74
$GPRMC,133511.00,A,2234.96373,N,11351.34752,E,0.272,,010414,,,A*7C
$GPRMC,133512.00,A,2234.96379,N,11351.34753,E,0.022,,010414,,,A*73
$GPRMC,133513.00,A,2234.96377,N,11351.34754,E,0.132,,010414,,,A*7B
$GPRMC,133514.00,A,2234.96379,N,11351.34755,E,0.044,,010414,,,A*73
$GPRMC,133515.00,A,2234.96368,N,11351.34747,E,0.082,,010414,,,A*7B
$GPRMC,133516.00,A,2234.96361,N,11351.34746,E,0.092,,010414,,,A*71
$GPRMC,133517.00,A,2234.96353,N,11351.34759,E,0.083,,010414,,,A*7F
$GPRMC,133518.00,A,2234.96357,N,11351.34767,E,0.126,,010414,,,A*77
$GPRMC,133519.00,A,2234.96340,N,11351.34778,E,0.298,,010414,,,A*78
$GPRMC,133520.00,A,2234.96343,N,11351.34786,E,0.038,,010414,,,A*78
$GPRMC,133521.00,A,2234.96333,N,11351.34798,E,0.172,,010414,,,A*7E
$GPRMC,133522.00,A,2234.96328,N,11351.34812,E,0.374,,010414,,,A*7E
$GPRMC,133523.00,A,2234.96312,N,11351.34823,E,0.143,,010414,,,A*72
$GPRMC,133524.00,A,2234.96290,N,11351.34831,E,0.060,,010414,,,A*7D
$GPRMC,133525.00,A,2234.96259,N,11351.34835,E,0.096,,010414,,,A*74
$GPRMC,133526.00,A,2234.96233,N,11351.34842,E,0.188,,010414,,,A*75
$GPRMC,133527.00,A,2234.96230,N,11351.34840,E,0.130,,010414,,,A*76
$GPRMC,133528.00,A,2234.96239,N,11351.34840,E,0.015,,010414,,,A*76
$GPRMC,133529.00,A,2234.96250,N,11351.34840,E,0.176,,010414,,,A*7C
$GPRMC,133530.00,A,2234.96257,N,11351.34842,E,0.033,,010414,,,A*71
$GPRMC,133531.00,A,2234.96250,N,11351.34847,E,0.108,,010414,,,A*7B
$GPRMC,133532.00,A,2234.96266,N,11351.34845,E,0.031,,010414,,,A*74
$GPRMC,133533.00,A,2234.96262,N,11351.34843,E,0.074,,010414,,,A*76
$GPRMC,133534.00,A,2234.96258,N,11351.34833,E,0.034,,010414,,,A*7B
$GPRMC,133535.00,A,2234.96259,N,11351.34830,E,0.031,,010414,,,A*7D
$GPRMC,133536.00,A,2234.96254,N,11351.34824,E,0.091,,010414,,,A*7C
$GPRMC,133537.00,A,2234.96241,N,11351.34827,E,0.538,,010414,,,A*7C
$GPRMC,133538.00,A,2234.96253,N,11351.34828,E,0.018,,010414,,,A*78
$GPRMC,133539.00,A,2234.96261,N,11351.34829,E,0.199,,010414,,,A*71
$GPRMC,133540.00,A,2234.96263,N,11351.34828,E,0.140,,010414,,,A*78
$GPRMC,133541.00,A,2234.96246,N,11351.34830,E,0.342,,010414,,,A*77
$GPRMC,133542.00,A,2234.96250,N,11351.34830,E,0.033,,010414,,,A*76
$GPRMC,133543.00,A,2234.96240,N,11351.34835,E,0.271,,010414,,,A*77
$GPRMC,133544.00,A,2234.96227,N,11351.34837,E,0.174,,010414,,,A*75
$GPRMC,133545.00,A,2234.96209,N,11351.34847,E,0.473,,010414,,,A*7D
$GPRMC,133546.00,A,2234.96197,N,11351.34853,E,0.432,,010414,,,A*7A
$GPRMC,133547.00,A,2234.96182,N,11351.34860,E,0.217,,010414,,,A*7E
$GPRMC,133548.00,A,2234.96189,N,11351.34867,E,0.176,,010414,,,A*79
$GPRMC,133549.00,A,2234.96172,N,11351.34874,E,0.204,,010414,,,A*78
$GPRMC,133550.00,A,2234.96166,N,11351.34880,E,0.346,,010414,,,A*79
$GPRMC,133551.00,A,2234.96174,N,11351.34886,E,0.045,,010414,,,A*7D
$GPRMC,133552.00,A,2234.96178,N,11351.34891,E,0.089,,010414,,,A*74
$GPRMC,133553.00,A,2234.96179,N,11351.34888,E,0.097,,010414,,,A*73
$GPRMC,133554.00,A,2234.96192,N,11351.34894,E,0.073,,010414,,,A*76
$GPRMC,133555.00,A,2234.96199,N,11351.34902,E,0.076,,010414,,,A*77
$GPRMC,133556.00,A,2234.96193,N,11351.34903,E,0.112,,010414,,,A*7C
$GPRMC,133557.00,A,2234.96190,N,11351.34900,E,0.397,,010414,,,A*72
$GPRMC,133558.00,A,2234.96170,N,11351.34894,E,0.100,,010414,,,A*73
$GPRMC,133559.00,A,2234.96172,N,11351.34897,E,0.133,,010414,,,A*73
$GPRMC,133600.00,A,2234.96161,N,11351.34887,E,0.402,,010414,,,A*78
$GPRMC,133601.00,A,2234.96156,N,11351.34892,E,0.046,,010414,,,A*7D
$GPRMC,133602.00,A,2234.96157,N,11351.34897,E,0.092,,010414,,,A*73
$GPRMC,133603.00,A,2234.96158,N,11351.34904,E,0.174,,010414,,,A*7F
$GPRMC,133604.00,A,2234.96155,N,11351.34905,E,0.071,,010414,,,A*70
$GPRMC,133605.00,A,2234.96156,N,11351.34898,E,0.085,,010414,,,A*7C
$GPRMC,133606.00,A,2234.96154,N,11351.34900,E,0.074,,010414,,,A*73
$GPRMC,133607.00,A,2234.96155,N,11351.34883,E,0.034,,010414,,,A*7D
$GPRMC,133608.00,A,2234.96151,N,11351.34850,E,0.042,,010414,,,A*79
$GPRMC,133609.00,A,2234.96149,N,11351.34847,E,0.127,,010414,,,A*75
$GPRMC,133610.00,A,2234.96146,N,11351.34844,E,0.077,,010414,,,A*75
$GPRMC,133611.00,A,2234.96145,N,11351.34844,E,0.029,,010414,,,A*7C
$GPRMC,133612.00,A,2234.96144,N,11351.34844,E,0.018,,010414,,,A*7C
$GPRMC,133613.00,A,2234.96143,N,11351.34843,E,0.095,,010414,,,A*78
$GPRMC,133614.00,A,2234.96143,N,11351.34839,E,0.114,,010414,,,A*7A
$GPRMC,133615.00,A,2234.96137,N,11351.34839,E,0.076,,010414,,,A*7D
$GPRMC,133616.00,A,2234.96140,N,11351.34845,E,0.067,,010414,,,A*75
$GPRMC,133617.00,A,2234.96137,N,11351.34848,E,0.029,,010414,,,A*73
$GPRMC,133618.00,A,2234.96138,N,11351.34855,E,0.148,,010414,,,A*79
$GPRMC,133619.00,A,2234.96140,N,11351.34855,E,0.151,,010414,,,A*7F
$GPRMC,133620.00,A,2234.96134,N,11351.34854,E,0.087,,010414,,,A*7D
$GPRMC,133621.00,A,2234.96133,N,11351.34853,E,0.312,,010414,,,A*73
$GPRMC,133622.00,A,2234.96128,N,11351.34855,E,0.054,,010414,,,A*7D
$GPRMC,133623.00,A,2234.96123,N,11351.34851,E,0.050,,010414,,,A*77
$GPRMC,133624.00,A,2234.96121,N,11351.34843,E,0.064,,010414,,,A*76
$GPRMC,133625.00,A,2234.96116,N,11351.34842,E,0.120,,010414,,,A*73
$GPRMC,133626.00,A,2234.96118,N,11351.34848,E,0.141,,010414,,,A*73
$GPRMC,133627.00,A,2234.96109,N,11351.34848,E,0.272,,010414,,,A*71
$GPRMC,133628.00,A,2234.96108,N,11351.34852,E,0.151,,010414,,,A*76
$GPRMC,133629.00,A,2234.96114,N,11351.34861,E,0.098,,010414,,,A*7E
$GPRMC,133630.00,A,2234.96113,N,11351.34861,E,0.099,,010414,,,A*70
$GPRMC,133631.00,A,2234.96100,N,11351.34859,E,0.018,,010414,,,A*71
$GPRMC,133632.00,A,2234.96084,N,11351.34857,E,0.160,,010414,,,A*7F
$GPRMC,133633.00,A,2234.96073,N,11351.34857,E,0.180,,010414,,,A*78
$GPRMC,133634.00,A,2234.96050,N,11351.34858,E,0.295,,010414,,,A*76
$GPRMC,133635.00,A,2234.96048,N,11351.34857,E,0.083,,010414,,,A*74
$GPRMC,133636.00,A,2234.96048,N,11351.34836,E,0.082,,010414,,,A*71
$GPRMC,133637.00,A,2234.96042,N,11351.34831,E,0.076,,010414,,,A*76
$GPRMC,133638.00,A,2234.96031,N,11351.34829,E,0.072,,010414,,,A*70
$GPRMC,133639.00,A,2234.96019,N,11351.34825,E,0.101,,010414,,,A*72
$GPRMC,133640.00,A,2234.96023,N,11351.34817,E,0.049,,010414,,,A*79
$GPRMC,133641.00,A,2234.96034,N,11351.34816,E,0.079,,010414,,,A*7C
$GPRMC,133642.00,A,2234.96040,N,11351.34816,E,0.040,,010414,,,A*76
$GPRMC,133643.00,A,2234.96049,N,11351.34815,E,0.026,,010414,,,A*7D
$GPRMC,133644.00,A,2234.96050,N,11351.34812,E,0.085,,010414,,,A*7C
$GPRMC,133645.00,A,2234.96058,N,11351.34813,E,0.022,,010414,,,A*79
$GPRMC,133646.00,A,2234.96060,N,11351.34813,E,0.008,,010414,,,A*79
$GPRMC,133647.00,A,2234.96060,N,11351.34811,E,0.065,,010414,,,A*71
$GPRMC,133648.00,A,2234.96063,N,11351.34814,E,0.043,,010414,,,A*7C
$GPRMC,133649.00,A,2234.96068,N,11351.34817,E,0.046,,010414,,,A*70
$GPRMC,133650.00,A,2234.96078,N,11351.34820,E,0.040,,010414,,,A*7B
$GPRMC,133651.00,A,2234.96090,N,11351.34824,E,0.017,,010414,,,A*7A
$GPRMC,133652.00,A,2234.96100,N,11351.34827,E,0.072,,010414,,,A*71
$GPRMC,133653.00,A,2234.96100,N,11351.34822,E,0.019,,010414,,,A*78
$GPRMC,133654.00,A,2234.96101,N,11351.34816,E,0.087,,010414,,,A*7E
$GPRMC,133655.00,A,2234.96111,N,11351.34813,E,0.068,,010414,,,A*7A
$GPRMC,133656.00,A,2234.96119,N,11351.34802,E,0.127,,010414,,,A*7B
$GPRMC,133657.00,A,2234.96127,N,11351.34798,E,0.069,,010414,,,A*70
$GPRMC,133658.00,A,2234.96134,N,11351.34796,E,0.063,,010414,,,A*79
$GPRMC,133659.00,A,2234.96135,N,11351.34784,E,0.080,,010414,,,A*77
$GPRMC,133700.00,A,2234.96134,N,11351.34777,E,0.024,,010414,,,A*79
$GPRMC,133701.00,A,2234.96136,N,11351.34776,E,0.064,,010414,,,A*7F
$GPRMC,133702.00,A,2234.96137,N,11351.34773,E,0.078,,010414,,,A*75
$GPRMC,133703.00,A,2234.96135,N,11351.34767,E,0.066,,010414,,,A*7C
$GPRMC,133704.00,A,2234.96134,N,11351.34759,E,0.103,,010414,,,A*75
$GPRMC,133705.00,A,2234.96129,N,11351.34754,E,0.092,,010414,,,A*7C
$GPRMC,133706.00,A,2234.96126,N,11351.34755,E,0.101,,010414,,,A*7A
$GPRMC,133707.00,A,2234.96120,N,11351.34761,E,0.320,,010414,,,A*7B
$GPRMC,133708.00,A,2234.96105,N,11351.34761,E,0.278,,010414,,,A*7F
$GPRMC,133709.00,A,2234.96094,N,11351.34759,E,0.158,,010414,,,A*7D
$GPRMC,133710.00,A,2234.96095,N,11351.34756,E,0.039,,010414,,,A*7D
$GPRMC,133711.00,A,2234.96096,N,11351.34759,E,0.062,,010414,,,A*7E
$GPRMC,133712.00,A,2234.96092,N,11351.34756,E,0.182,,010414,,,A*79
$GPRMC,133713.00,A,2234.96090,N,11351.34758,E,0.037,,010414,,,A*7B
$GPRMC,133714.00,A,2234.96093,N,11351.34761,E,0.033,,010414,,,A*71
$GPRMC,133715.00,A,2234.96097,N,11351.34761,E,0.038,,010414,,,A*7F
$GPRMC,133716.00,A,2234.96094,N,11351.34763,E,0.083,,010414,,,A*7D
$GPRMC,133717.00,A,2234.96096,N,11351.34766,E,0.038,,010414,,,A*7B
$GPRMC,133718.00,A,2234.96102,N,11351.34767,E,0.005,,010414,,,A*77
$GPRMC,133719.00,A,2234.96101,N,11351.34765,E,0.029,,010414,,,A*79
$GPRMC,133720.00,A,2234.96095,N,11351.34763,E,0.074,,010414,,,A*71
$GPRMC,133721.00,A,2234.96086,N,11351.34764,E,0.146,,010414,,,A*75
$GPRMC,133722.00,A,2234.96083,N,11351.34772,E,0.016,,010414,,,A*70
$GPRMC,133723.00,A,2234.96078,N,11351.34774,E,0.136,,010414,,,A*70
$GPRMC,133724.00,A,2234.96079,N,11351.34775,E,0.108,,010414,,,A*7A
$GPRMC,133725.00,A,2234.96077,N,11351.34777,E,0.056,,010414,,,A*7D
$GPRMC,133726.00,A,2234.96068,N,11351.34780,E,0.077,,010414,,,A*7B
$GPRMC,133727.00,A,2234.96064,N,11351.34781,E,0.084,,010414,,,A*7B
$GPRMC,133728.00,A,2234.96062,N,11351.34787,E,0.068,,010414,,,A*76
$GPRMC,133729.00,A,2234.96060,N,11351.34795,E,0.107,,010414,,,A*7E
$GPRMC,133730.00,A,2234.96061,N,11351.34803,E,0.041,,010414,,,A*74
$GPRMC,133731.00,A,2234.96064,N,11351.34808,E,0.105,,010414,,,A*7A
$GPRMC,133732.00,A,2234.96066,N,11351.34811,E,0.073,,010414,,,A*73
$GPRMC,133733.00,A,2234.96069,N,11351.34818,E,0.053,,010414,,,A*76
$GPRMC,133734.00,A,2234.96073,N,11351.34820,E,0.027,,010414,,,A*72
$GPRMC,133735.00,A,2234.96076,N,11351.34825,E,0.048,,010414,,,A*7A
$GPRMC,133736.00,A,2234.96081,N,11351.34831,E,0.098,,010414,,,A*79
$GPRMC,133737.00,A,2234.96087,N,11351.34834,E,0.089,,010414,,,A*7B
$GPRMC,133738.00,A,2234.96086,N,11351.34835,E,0.089,,010414,,,A*74
$GPRMC,133739.00,A,2234.96079,N,11351.34836,E,0.078,,010414,,,A*78
$GPRMC,133740.00,A,2234.96075,N,11351.34836,E,0.068,,010414,,,A*7B
$GPRMC,133741.00,A,2234.96072,N,11351.34838,E,0.188,,010414,,,A*7C
$GPRMC,133742.00,A,2234.96076,N,11351.34836,E,0.141,,010414,,,A*70
$GPRMC,133743.00,A,2234.96078,N,11351.34835,E,0.068,,010414,,,A*76
$GPRMC,133744.00,A,2234.96080,N,11351.34833,E,0.099,,010414,,,A*7E
$GPRMC,133745.00,A,2234.96085,N,11351.34832,E,0.082,,010414,,,A*71
$GPRMC,133746.00,A,2234.96085,N,11351.34832,E,0.181,,010414,,,A*70
$GPRMC,133747.00,A,2234.96088,N,11351.34841,E,0.128,,010414,,,A*7B
$GPRMC,133748.00,A,2234.96090,N,11351.34847,E,0.056,,010414,,,A*73
$GPRMC,133749.00,A,2234.96093,N,11351.34850,E,0.024,,010414,,,A*72
$GPRMC,133750.00,A,2234.96095,N,11351.34855,E,0.065,,010414,,,A*7C
$GPRMC,133751.00,A,2234.96098,N,11351.34857,E,0.011,,010414,,,A*71
$GPRMC,133752.00,A,2234.96106,N,11351.34861,E,0.084,,010414,,,A*7D
$GPRMC,133753.00,A,2234.96114,N,11351.34861,E,0.075,,010414,,,A*71
$GPRMC,133754.00,A,2234.96120,N,11351.34863,E,0.033,,010414,,,A*71
$GPRMC,133755.00,A,2234.96125,N,11351.34866,E,0.006,,010414,,,A*76
$GPRMC,133756.00,A,2234.96132,N,11351.34872,E,0.046,,010414,,,A*72
$GPRMC,133757.00,A,2234.96135,N,11351.34872,E,0.075,,010414,,,A*74
$GPRMC,133758.00,A,2234.96143,N,11351.34872,E,0.021,,010414,,,A*7B
$GPRMC,133759.00,A,2234.96149,N,11351.34875,E,0.038,,010414,,,A*7F
$GPRMC,133800.00,A,2234.96153,N,11351.34880,E,0.047,,010414,,,A*75
$GPRMC,133801.00,A,2234.96155,N,11351.34885,E,0.018,,010414,,,A*7D
$GPRMC,133802.00,A,2234.96157,N,11351.34892,E,0.067,,010414,,,A*72
$GPRMC,133803.00,A,2234.96158,N,11351.34893,E,0.130,,010414,,,A*7E
$GPRMC,133804.00,A,2234.96161,N,11351.34895,E,0.048,,010414,,,A*7B
$GPRMC,133805.00,A,2234.96155,N,11351.34897,E,0.027,,010414,,,A*76
$GPRMC,133806.00,A,2234.96149,N,11351.34895,E,0.029,,010414,,,A*74
$GPRMC,133807.00,A,2234.96143,N,11351.34894,E,0.072,,010414,,,A*70
$GPRMC,133808.00,A,2234.96137,N,11351.34894,E,0.097,,010414,,,A*77
$GPRMC,133809.00,A,2234.96132,N,11351.34895,E,0.018,,010414,,,A*75
$GPRMC,133810.00,A,2234.96128,N,11351.34897,E,0.030,,010414,,,A*7E
$GPRMC,133811.00,A,2234.96121,N,11351.34896,E,0.233,,010414,,,A*76
$GPRMC,133812.00,A,2234.96119,N,11351.34904,E,0.231,,010414,,,A*76
$GPRMC,133813.00,A,2234.96111,N,11351.34911,E,0.181,,010414,,,A*73
$GPRMC,133814.00,A,2234.96102,N,11351.34910,E,0.099,,010414,,,A*7F
$GPRMC,133815.00,A,2234.96101,N,11351.34912,E,0.051,,010414,,,A*7B
$GPRMC,133816.00,A,2234.96099,N,11351.34921,E,0.233,,010414,,,A*7E
$GPRMC,133817.00,A,2234.96095,N,11351.34936,E,0.353,,010414,,,A*72
$GPRMC,133818.00,A,2234.96097,N,11351.34950,E,0.189,,010414,,,A*7A
$GPRMC,133819.00,A,2234.96104,N,11351.34956,E,0.084,,010414,,,A*7A
$GPRMC,133820.00,A,2234.96108,N,11351.34965,E,0.136,,010414,,,A*74
$GPRMC,133821.00,A,2234.96108,N,11351.34970,E,0.099,,010414,,,A*75
$GPRMC,133822.00,A,2234.96106,N,11351.34977,E,0.131,,010414,,,A*7C
$GPRMC,133823.00,A,2234.96109,N,11351.34981,E,0.069,,010414,,,A*77
$GPRMC,133824.00,A,2234.96116,N,11351.34984,E,0.049,,010414,,,A*79
$GPRMC,133825.00,A,2234.96119,N,11351.34984,E,0.098,,010414,,,A*7B
$GPRMC,133826.00,A,2234.96120,N,11351.34984,E,0.064,,010414,,,A*71
$GPRMC,133827.00,A,2234.96118,N,11351.34982,E,0.150,,010414,,,A*7B
$GPRMC,133828.00,A,2234.96107,N,11351.34982,E,0.018,,010414,,,A*77
$GPRMC,133829.00,A,2234.96096,N,11351.34980,E,0.042,,010414,,,A*72
$GPRMC,133830.00,A,2234.96087,N,11351.34981,E,0.077,,010414,,,A*7D
$GPRMC,133831.00,A,2234.96074,N,11351.34983,E,0.054,,010414,,,A*73
$GPRMC,133832.00,A,2234.96062,N,11351.34987,E,0.118,,010414,,,A*7A
$GPRMC,133833.00,A,2234.96056,N,11351.34992,E,0.313,,010414,,,A*71
$GPRMC,133834.00,A,2234.96026,N,11351.35000,E,0.494,,010414,,,A*7A
$GPRMC,133835.00,A,2234.96031,N,11351.34999,E,0.046,,010414,,,A*7E
$GPRMC,133836.00,A,2234.96022,N,11351.34995,E,0.075,,010414,,,A*73
$GPRMC,133837.00,A,2234.96016,N,11351.34988,E,0.170,,010414,,,A*7D
$GPRMC,133838.00,A,2234.96005,N,11351.34986,E,0.065,,010414,,,A*7B
$GPRMC,133839.00,A,2234.95999,N,11351.34989,E,0.091,,010414,,,A*71
$GPRMC,133840.00,A,2234.95981,N,11351.34991,E,0.054,,010414,,,A*76
$GPRMC,133841.00,A,2234.95964,N,11351.34995,E,0.028,,010414,,,A*73
$GPRMC,133842.00,A,2234.95949,N,11351.34996,E,0.162,,010414,,,A*73
$GPRMC,133843.00,A,2234.95935,N,11351.35011,E,0.373,,010414,,,A*7C
$GPRMC,133844.00,A,2234.95921,N,11351.35022,E,0.199,,010414,,,A*78
$GPRMC,133845.00,A,2234.95903,N,11351.35038,E,0.089,,010414,,,A*72
$GPRMC,133846.00,A,2234.95888,N,11351.35049,E,0.233,,010414,,,A*76
$GPRMC,133847.00,A,2234.95866,N,11351.35062,E,0.332,,010414,,,A*7E
$GPRMC,133848.00,A,2234.95862,N,11351.35066,E,0.226,,010414,,,A*75
$GPRMC,133849.00,A,2234.95857,N,11351.35069,E,0.128,,010414,,,A*70
$GPRMC,133850.00,A,2234.95857,N,11351.35068,E,0.040,,010414,,,A*76
$GPRMC,133851.00,A,2234.95862,N,11351.35070,E,0.139,,010414,,,A*77
$GPRMC,133852.00,A,2234.95868,N,11351.35075,E,0.139,,010414,,,A*7B
$GPRMC,133853.00,A,2234.95867,N,11351.35083,E,0.108,,010414,,,A*7E
$GPRMC,133854.00,A,2234.95863,N,11351.35090,E,0.103,,010414,,,A*74
$GPRMC,133855.00,A,2234.95867,N,11351.35097,E,0.275,,010414,,,A*74
$GPRMC,133856.00,A,2234.95866,N,11351.35099,E,0.247,,010414,,,A*79
$GPRMC,133857.00,A,2234.95839,N,11351.35117,E,0.119,,010414,,,A*7D
$GPRMC,133858.00,A,2234.95838,N,11351.35116,E,0.013,,010414,,,A*79
$GPRMC,133859.00,A,2234.95819,N,11351.35124,E,0.181,,010414,,,A*70
$GPRMC,133900.00,A,2234.95801,N,11351.35132,E,0.209,,010414,,,A*70
$GPRMC,133901.00,A,2234.95777,N,11351.35144,E,0.116,,010414,,,A*73
$GPRMC,133902.00,A,2234.95780,N,11351.35138,E,0.125,,010414,,,A*73
$GPRMC,133903.00,A,2234.95784,N,11351.35132,E,0.059,,010414,,,A*76
$GPRMC,133904.00,A,2234.95788,N,11351.35137,E,0.321,,010414,,,A*74
$GPRMC,133905.00,A,2234.95776,N,11351.35152,E,0.375,,010414,,,A*76
$GPRMC,133906.00,A,2234.95757,N,11351.35160,E,0.100,,010414,,,A*77
$GPRMC,133907.00,A,2234.95744,N,11351.35165,E,0.082,,010414,,,A*7A
$GPRMC,133908.00,A,2234.95737,N,11351.35167,E,0.190,,010414,,,A*71
$GPRMC,133909.00,A,2234.95731,N,11351.35164,E,0.230,,010414,,,A*7C
$GPRMC,133910.00,A,2234.95721,N,11351.35161,E,0.035,,010414,,,A*77
$GPRMC,133911.00,A,2234.95708,N,11351.35160,E,0.104,,010414,,,A*7F
$GPRMC,133912.00,A,2234.95701,N,11351.35155,E,0.011,,010414,,,A*76
$GPRMC,133913.00,A,2234.95696,N,11351.35159,E,0.295,,010414,,,A*7A
$GPRMC,133914.00,A,2234.95696,N,11351.35160,E,0.143,,010414,,,A*7F
$GPRMC,133915.00,A,2234.95689,N,11351.35168,E,0.143,,010414,,,A*78
$GPRMC,133916.00,A,2234.95686,N,11351.35173,E,0.183,,010414,,,A*72
$GPRMC,133917.00,A,2234.95672,N,11351.35186,E,0.511,,010414,,,A*7D
$GPRMC,133918.00,A,2234.95669,N,11351.35197,E,0.426,,010414,,,A*7D
$GPRMC,133919.00,A,2234.95671,N,11351.35206,E,0.241,,010414,,,A*79
$GPRMC,133920.00,A,2234.95668,N,11351.35206,E,0.038,,010414,,,A*77
$GPRMC,133921.00,A,2234.95672,N,11351.35204,E,0.113,,010414,,,A*77
$GPRMC,133922.00,A,2234.95678,N,11351.35193,E,0.129,,010414,,,A*7A
$GPRMC,133923.00,A,2234.95673,N,11351.35195,E,0.156,,010414,,,A*7E
$GPRMC,133924.00,A,2234.95673,N,11351.35197,E,0.089,,010414,,,A*78
$GPRMC,133925.00,A,2234.95677,N,11351.35195,E,0.106,,010414,,,A*79
$GPRMC,133926.00,A,2234.95689,N,11351.35202,E,0.387,,010414,,,A*7D
$GPRMC,133927.00,A,2234.95694,N,11351.35206,E,0.367,,010414,,,A*7A
$GPRMC,133928.00,A,2234.95695,N,11351.35193,E,0.054,,010414,,,A*78
$GPRMC,133929.00,A,2234.95702,N,11351.35177,E,0.374,,010414,,,A*7D
$GPRMC,133930.00,A,2234.95680,N,11351.35190,E,0.116,,010414,,,A*71
$GPRMC,133931.00,A,2234.95660,N,11351.35209,E,0.205,,010414,,,A*7C
$GPRMC,133932.00,A,2234.95643,N,11351.35217,E,0.139,,010414,,,A*7D
$GPRMC,133933.00,A,2234.95645,N,11351.35200,E,0.303,,010414,,,A*77
$GPRMC,133934.00,A,2234.95639,N,11351.35197,E,0.085,,010414,,,A*7B
$GPRMC,133935.00,A,2234.95616,N,11351.35200,E,0.164,,010414,,,A*74
$GPRMC,133936.00,A,2234.95595,N,11351.35210,E,0.089,,010414,,,A*7C
$GPRMC,133937.00,A,2234.95571,N,11351.35215,E,0.262,,010414,,,A*75
$GPRMC,133938.00,A,2234.95576,N,11351.35204,E,0.148,,010414,,,A*76
$GPRMC,133939.00,A,2234.95583,N,11351.35214,E,0.310,,010414,,,A*73
$GPRMC,133940.00,A,2234.95573,N,11351.35228,E,0.237,,010414,,,A*79
$GPRMC,133941.00,A,2234.95564,N,11351.35255,E,0.095,,010414,,,A*7E
$GPRMC,133942.00,A,2234.95558,N,11351.35262,E,0.069,,010414,,,A*75
$GPRMC,133943.00,A,2234.95551,N,11351.35233,E,0.135,,010414,,,A*71
$GPRMC,133944.00,A,2234.95548,N,11351.35226,E,0.197,,010414,,,A*72
$GPRMC,133945.00,A,2234.95547,N,11351.35159,E,0.219,,010414,,,A*72
$GPRMC,133946.00,A,2234.95547,N,11351.35078,E,0.183,,010414,,,A*73
$GPRMC,133947.00,A,2234.95552,N,11351.35035,E,0.142,,010414,,,A*72
$GPRMC,133948.00,A,2234.95546,N,11351.34984,E,0.327,,010414,,,A*7B
$GPRMC,133949.00,A,2234.95541,N,11351.34964,E,0.168,,010414,,,A*7A
$GPRMC,133950.00,A,2234.95528,N,11351.34922,E,0.128,,010414,,,A*7B
$GPRMC,133951.00,A,2234.95514,N,11351.34888,E,0.173,,010414,,,A*7A
$GPRMC,133952.00,A,2234.95509,N,11351.34830,E,0.091,,010414,,,A*7B
$GPRMC,133953.00,A,2234.95501,N,11351.34831,E,0.174,,010414,,,A*79
$GPRMC,133954.00,A,2234.95495,N,11351.34805,E,0.238,,010414,,,A*7E
$GPRMC,133955.00,A,2234.95492,N,11351.34779,E,0.093,,010414,,,A*7F
$GPRMC,133956.00,A,2234.95493,N,11351.34728,E,0.203,,010414,,,A*72
$GPRMC,133957.00,A,2234.95491,N,11351.34696,E,0.127,,010414,,,A*70
$GPRMC,133958.00,A,2234.95483,N,11351.34688,E,0.175,,010414,,,A*74
$GPRMC,133959.00,A,2234.95485,N,11351.34668,E,0.236,,010414,,,A*79
$GPRMC,134000.00,A,2234.95487,N,11351.34652,E,0.056,,010414,,,A*74
$GPRMC,134001.00,A,2234.95486,N,11351.34622,E,0.101,,010414,,,A*70
$GPRMC,134002.00,A,2234.95480,N,11351.34593,E,0.097,,010414,,,A*72
$GPRMC,134003.00,A,2234.95478,N,11351.34560,E,0.353,,010414,,,A*73
$GPRMC,134004.00,A,2234.95472,N,11351.34539,E,0.319,,010414,,,A*7C
$GPRMC,134005.00,A,2234.95467,N,11351.34531,E,0.037,,010414,,,A*7E
$GPRMC,134006.00,A,2234.95455,N,11351.34509,E,0.206,,010414,,,A*77
$GPRMC,134007.00,A,2234.95444,N,11351.34483,E,0.397,,010414,,,A*7C
$GPRMC,134008.00,A,2234.95439,N,11351.34446,E,0.422,,010414,,,A*79
$GPRMC,134009.00,A,2234.95442,N,11351.34422,E,0.073,,010414,,,A*76
$GPRMC,134010.00,A,2234.95444,N,11351.34384,E,0.045,,010414,,,A*76
$GPRMC,134011.00,A,2234.95446,N,11351.34356,E,0.166,,010414,,,A*7A
$GPRMC,134012.00,A,2234.95446,N,11351.34322,E,0.312,,010414,,,A*7B
$GPRMC,134013.00,A,2234.95446,N,11351.34298,E,0.073,,010414,,,A*7E
$GPRMC,134014.00,A,2234.95442,N,11351.34256,E,0.137,,010414,,,A*7E
$GPRMC,134015.00,A,2234.95438,N,11351.34232,E,0.144,,010414,,,A*74
$GPRMC,134016.00,A,2234.95434,N,11351.34201,E,0.560,,010414,,,A*79
$GPRMC,134017.00,A,2234.95436,N,11351.34165,E,0.315,,010414,,,A*7F
$GPRMC,134018.00,A,2234.95434,N,11351.34148,E,0.131,,010414,,,A*79
$GPRMC,134019.00,A,2234.95440,N,11351.34071,E,0.606,,010414,,,A*73
$GPRMC,134020.00,A,2234.95440,N,11351.34038,E,0.492,,010414,,,A*7B
$GPRMC,134021.00,A,2234.95441,N,11351.34013,E,0.378,,010414,,,A*71
$GPRMC,134022.00,A,2234.95442,N,11351.33985,E,0.107,,010414,,,A*7A
$GPRMC,134023.00,A,2234.95444,N,11351.33956,E,0.075,,010414,,,A*77
$GPRMC,134024.00,A,2234.95435,N,11351.33896,E,0.521,,010414,,,A*7F
$GPRMC,134025.00,A,2234.95427,N,11351.33873,E,0.412,,010414,,,A*77
$GPRMC,134026.00,A,2234.95419,N,11351.33844,E,0.372,,010414,,,A*7C
$GPRMC,134027.00,A,2234.95407,N,11351.33827,E,0.319,,010414,,,A*7A
$GPRMC,134028.00,A,2234.95394,N,11351.33812,E,0.295,,010414,,,A*7B
$GPRMC,134029.00,A,2234.95384,N,11351.33801,E,0.331,,010414,,,A*76
$GPRMC,134030.00,A,2234.95381,N,11351.33807,E,0.148,,010414,,,A*71
$GPRMC,134031.00,A,2234.95367,N,11351.33803,E,0.341,,010414,,,A*77
$GPRMC,134032.00,A,2234.95354,N,11351.33803,E,0.257,,010414,,,A*72
$GPRMC,134033.00,A,2234.95339,N,11351.33810,E,0.220,,010414,,,A*7A
$GPRMC,134034.00,A,2234.95324,N,11351.33802,E,0.215,,010414,,,A*74
$GPRMC,134035.00,A,2234.95319,N,11351.33789,E,0.153,,010414,,,A*76
$GPRMC,134036.00,A,2234.95310,N,11351.33786,E,0.160,,010414,,,A*73
$GPRMC,134037.00,A,2234.95294,N,11351.33724,E,0.083,,010414,,,A*7B
$GPRMC,134038.00,A,2234.95276,N,11351.33666,E,0.187,,010414,,,A*7A
$GPRMC,134039.00,A,2234.95254,N,11351.33583,E,0.195,,010414,,,A*70
$GPRMC,134040.00,A,2234.95234,N,11351.33479,E,0.041,,010414,,,A*74
$GPRMC,134041.00,A,2234.95205,N,11351.33385,E,0.121,,010414,,,A*74
$GPRMC,134042.00,A,2234.95180,N,11351.33272,E,0.496,,010414,,,A*79
$GPRMC,134043.00,A,2234.95160,N,11351.33229,E,0.449,,010414,,,A*7A
$GPRMC,134044.00,A,2234.95143,N,11351.33173,E,0.400,,010414,,,A*7D
$GPRMC,134045.00,A,2234.95129,N,11351.33138,E,0.064,,010414,,,A*79
$GPRMC,134046.00,A,2234.95126,N,11351.33154,E,0.082,,010414,,,A*77
$GPRMC,134047.00,A,2234.95115,N,11351.33094,E,0.217,,010414,,,A*75
$GPRMC,134048.00,A,2234.95117,N,11351.33095,E,0.052,,010414,,,A*7A
$GPRMC,134049.00,A,2234.95113,N,11351.33101,E,0.337,,010414,,,A*73
$GPRMC,134050.00,A,2234.95107,N,11351.33107,E,0.204,,010414,,,A*79
$GPRMC,134051.00,A,2234.95102,N,11351.33107,E,0.070,,010414,,,A*7C
$GPRMC,134052.00,A,2234.95097,N,11351.33105,E,0.145,,010414,,,A*77
$GPRMC,134053.00,A,2234.95099,N,11351.33085,E,0.164,,010414,,,A*72
$GPRMC,134054.00,A,2234.95095,N,11351.33083,E,0.138,,010414,,,A*76
$GPRMC,134055.00,A,2234.95089,N,11351.33003,E,0.164,,010414,,,A*7B
$GPRMC,134056.00,A,2234.95078,N,11351.32982,E,0.183,,010414,,,A*7E
$GPRMC,134057.00,A,2234.95074,N,11351.32980,E,0.150,,010414,,,A*7F
$GPRMC,134058.00,A,2234.95070,N,11351.32978,E,0.195,,010414,,,A*7A
$GPRMC,134059.00,A,2234.95064,N,11351.32971,E,0.091,,010414,,,A*72
$GPRMC,134100.00,A,2234.95057,N,11351.32972,E,0.088,,010414,,,A*74
$GPRMC,134101.00,A,2234.95053,N,11351.32975,E,0.134,,010414,,,A*70
$GPRMC,134102.00,A,2234.95052,N,11351.32951,E,0.117,,010414,,,A*75
$GPRMC,134103.00,A,2234.95051,N,11351.32927,E,0.118,,010414,,,A*79
$GPRMC,134104.00,A,2234.95048,N,11351.32921,E,0.120,,010414,,,A*7B
$GPRMC,134105.00,A,2234.95049,N,11351.32923,E,0.199,,010414,,,A*7B
$GPRMC,134106.00,A,2234.95045,N,11351.32944,E,0.142,,010414,,,A*73
$GPRMC,134107.00,A,2234.95041,N,11351.32938,E,0.192,,010414,,,A*70
$GPRMC,134108.00,A,2234.95039,N,11351.32943,E,0.119,,010414,,,A*7F
$GPRMC,134109.00,A,2234.95034,N,11351.32930,E,0.195,,010414,,,A*73
$GPRMC,134110.00,A,2234.95031,N,11351.32900,E,0.171,,010414,,,A*77
$GPRMC,134111.00,A,2234.95016,N,11351.32830,E,0.141,,010414,,,A*72
$GPRMC,134112.00,A,2234.95002,N,11351.32752,E,0.085,,010414,,,A*76
$GPRMC,134113.00,A,2234.94996,N,11351.32708,E,0.144,,010414,,,A*71
$GPRMC,134114.00,A,2234.95002,N,11351.32676,E,0.103,,010414,,,A*78
$GPRMC,134115.00,A,2234.95014,N,11351.32694,E,0.138,,010414,,,A*7A
$GPRMC,134116.00,A,2234.95028,N,11351.32755,E,0.263,,010414,,,A*77
$GPRMC,134117.00,A,2234.95043,N,11351.32809,E,0.053,,010414,,,A*7C
$GPRMC,134118.00,A,2234.95060,N,11351.32885,E,0.042,,010414,,,A*76
$GPRMC,134119.00,A,2234.95077,N,11351.32966,E,0.152,,010414,,,A*7D
$GPRMC,134120.00,A,2234.95090,N,11351.33057,E,0.426,,010414,,,A*72
$GPRMC,134121.00,A,2234.95106,N,11351.33151,E,0.464,,010414,,,A*7C
$GPRMC,134122.00,A,2234.95119,N,11351.33229,E,0.141,,010414,,,A*7F
$GPRMC,134123.00,A,2234.95126,N,11351.33313,E,0.082,,010414,,,A*74
$GPRMC,134124.00,A,2234.95136,N,11351.33382,E,0.096,,010414,,,A*7F
$GPRMC,134125.00,A,2234.95145,N,11351.33454,E,0.177,,010414,,,A*78
$GPRMC,134126.00,A,2234.95150,N,11351.33511,E,0.161,,010414,,,A*78
$GPRMC,134127.00,A,2234.95162,N,11351.33564,E,0.154,,010414,,,A*7C
$GPRMC,134128.00,A,2234.95171,N,11351.33616,E,0.053,,010414,,,A*71
$GPRMC,134129.00,A,2234.95185,N,11351.33657,E,0.215,,010414,,,A*7E
$GPRMC,134130.00,A,2234.95197,N,11351.33701,E,0.105,,010414,,,A*75
$GPRMC,134131.00,A,2234.95207,N,11351.33737,E,0.048,,010414,,,A*73
$GPRMC,134132.00,A,2234.95220,N,11351.33772,E,0.037,,010414,,,A*7C
$GPRMC,134133.00,A,2234.95232,N,11351.33799,E,0.099,,010414,,,A*7F
$GPRMC,134134.00,A,2234.95248,N,11351.33823,E,0.155,,010414,,,A*7A
$GPRMC,134135.00,A,2234.95264,N,11351.33849,E,0.020,,010414,,,A*7A
$GPRMC,134136.00,A,2234.95278,N,11351.33872,E,0.058,,010414,,,A*73
$GPRMC,134137.00,A,2234.95291,N,11351.33905,E,0.183,,010414,,,A*73
$GPRMC,134138.00,A,2234.95297,N,11351.33941,E,0.363,,010414,,,A*76
$GPRMC,134139.00,A,2234.95303,N,11351.33971,E,0.300,,010414,,,A*7D
$GPRMC,134140.00,A,2234.95312,N,11351.33998,E,0.135,,010414,,,A*70
$GPRMC,134141.00,A,2234.95327,N,11351.34025,E,0.166,,010414,,,A*79
$GPRMC,134142.00,A,2234.95338,N,11351.34048,E,0.122,,010414,,,A*7F
$GPRMC,134143.00,A,2234.95347,N,11351.34076,E,0.091,,010414,,,A*72
$GPRMC,134144.00,A,2234.95353,N,11351.34096,E,0.075,,010414,,,A*74
$GPRMC,134145.00,A,2234.95360,N,11351.34115,E,0.130,,010414,,,A*7F
$GPRMC,134146.00,A,2234.95363,N,11351.34132,E,0.027,,010414,,,A*7D
$GPRMC,134147.00,A,2234.95368,N,11351.34152,E,0.255,,010414,,,A*76
$GPRMC,134148.00,A,2234.95378,N,11351.34168,E,0.087,,010414,,,A*7C
$GPRMC,134149.00,A,2234.95389,N,11351.34188,E,0.031,,010414,,,A*70
$GPRMC,134150.00,A,2234.95400,N,11351.34206,E,0.105,,010414,,,A*7D
$GPRMC,134151.00,A,2234.95406,N,11351.34219,E,0.055,,010414,,,A*70
$GPRMC,134152.00,A,2234.95410,N,11351.34228,E,0.047,,010414,,,A*75
$GPRMC,134153.00,A,2234.95417,N,11351.34242,E,0.059,,010414,,,A*70
$GPRMC,134154.00,A,2234.95423,N,11351.34252,E,0.057,,010414,,,A*7F
$GPRMC,134155.00,A,2234.95427,N,11351.34260,E,0.037,,010414,,,A*7D
$GPRMC,134156.00,A,2234.95434,N,11351.34270,E,0.138,,010414,,,A*73
$GPRMC,134157.00,A,2234.95444,N,11351.34280,E,0.086,,010414,,,A*7E
$GPRMC,134158.00,A,2234.95455,N,11351.34294,E,0.081,,010414,,,A*73
$GPRMC,134159.00,A,2234.95466,N,11351.34307,E,0.039,,010414,,,A*7A
$GPRMC,134200.00,A,2234.95479,N,11351.34320,E,0.099,,010414,,,A*74
$GPRMC,134201.00,A,2234.95491,N,11351.34327,E,0.050,,010414,,,A*71
$GPRMC,134202.00,A,2234.95504,N,11351.34338,E,0.016,,010414,,,A*73
$GPRMC,134203.00,A,2234.95514,N,11351.34349,E,0.074,,010414,,,A*71
$GPRMC,134204.00,A,2234.95522,N,11351.34358,E,0.049,,010414,,,A*7D
$GPRMC,134205.00,A,2234.95530,N,11351.34368,E,0.056,,010414,,,A*72
$GPRMC,134206.00,A,2234.95536,N,11351.34375,E,0.017,,010414,,,A*7E
$GPRMC,134207.00,A,2234.95544,N,11351.34387,E,0.112,,010414,,,A*73
$GPRMC,134208.00,A,2234.95550,N,11351.34397,E,0.036,,010414,,,A*7F
$GPRMC,134209.00,A,2234.95558,N,11351.34408,E,0.039,,010414,,,A*78
$GPRMC,134210.00,A,2234.95564,N,11351.34415,E,0.056,,010414,,,A*7A
$GPRMC,134211.00,A,2234.95572,N,11351.34420,E,0.131,,010414,,,A*7A
$GPRMC,134212.00,A,2234.95582,N,11351.34429,E,0.036,,010414,,,A*79
$GPRMC,134213.00,A,2234.95588,N,11351.34436,E,0.032,,010414,,,A*78
$GPRMC,134214.00,A,2234.95593,N,11351.34446,E,0.109,,010414,,,A*7B
$GPRMC,134215.00,A,2234.95594,N,11351.34454,E,0.043,,010414,,,A*71
$GPRMC,134216.00,A,2234.95606,N,11351.34468,E,0.177,,010414,,,A*73
$GPRMC,134217.00,A,2234.95613,N,11351.34480,E,0.095,,010414,,,A*7D
$GPRMC,134218.00,A,2234.95623,N,11351.34489,E,0.018,,010414,,,A*7D
$GPRMC,134219.00,A,2234.95624,N,11351.34502,E,0.073,,010414,,,A*74
$GPRMC,134220.00,A,2234.95631,N,11351.34517,E,0.044,,010414,,,A*7A
$GPRMC,134221.00,A,2234.95639,N,11351.34530,E,0.158,,010414,,,A*7A
$GPRMC,134222.00,A,2234.95656,N,11351.34536,E,0.064,,010414,,,A*78
$GPRMC,134223.00,A,2234.95662,N,11351.34540,E,0.093,,010414,,,A*77
$GPRMC,134224.00,A,2234.95670,N,11351.34543,E,0.082,,010414,,,D*75
$GPRMC,134225.00,A,2234.95676,N,11351.34542,E,0.033,,010414,,,D*79
$GPRMC,134226.00,A,2234.95683,N,11351.34541,E,0.077,,010414,,,D*73
$GPRMC,134227.00,A,2234.95692,N,11351.34544,E,0.063,,010414,,,D*72
$GPRMC,134228.00,A,2234.95701,N,11351.34547,E,0.038,,010414,,,D*7B
$GPRMC,134229.00,A,2234.95700,N,11351.34543,E,0.074,,010414,,,D*77
$GPRMC,134230.00,A,2234.95709,N,11351.34547,E,0.061,,010414,,,D*76
$GPRMC,134231.00,A,2234.95716,N,11351.34548,E,0.090,,010414,,,D*78
$GPRMC,134232.00,A,2234.95721,N,11351.34548,E,0.077,,010414,,,D*76
$GPRMC,134233.00,A,2234.95732,N,11351.34558,E,0.026,,010414,,,D*70
$GPRMC,134234.00,A,2234.95738,N,11351.34558,E,0.088,,010414,,,D*79
$GPRMC,134235.00,A,2234.95744,N,11351.34561,E,0.030,,010414,,,D*7A
$GPRMC,134236.00,A,2234.95741,N,11351.34562,E,0.124,,010414,,,D*7B
$GPRMC,134237.00,A,2234.95743,N,11351.34569,E,0.050,,010414,,,D*71
$GPRMC,134238.00,A,2234.95742,N,11351.34574,E,0.081,,010414,,,D*7F
$GPRMC,134239.00,A,2234.95736,N,11351.34579,E,0.258,,010414,,,D*76
$GPRMC,134240.00,A,2234.95732,N,11351.34586,E,0.195,,010414,,,D*7E
$GPRMC,134241.00,A,2234.95727,N,11351.34592,E,0.068,,010414,,,D*7D
$GPRMC,134242.00,A,2234.95724,N,11351.34596,E,0.073,,010414,,,D*73
$GPRMC,134243.00,A,2234.95726,N,11351.34596,E,0.085,,010414,,,D*79
$GPRMC,134244.00,A,2234.95730,N,11351.34597,E,0.093,,010414,,,D*7F
$GPRMC,134245.00,A,2234.95734,N,11351.34599,E,0.107,,010414,,,D*78
$GPRMC,134246.00,A,2234.95742,N,11351.34603,E,0.087,,010414,,,D*73
$GPRMC,134247.00,A,2234.95736,N,11351.34606,E,0.011,,010414,,,D*7B
$GPRMC,134248.00,A,2234.95736,N,11351.34606,E,0.018,,010414,,,D*7D
$GPRMC,134249.00,A,2234.95737,N,11351.34605,E,0.077,,010414,,,D*77
$GPRMC,134250.00,A,2234.95735,N,11351.34607,E,0.014,,010414,,,D*7A
$GPRMC,134251.00,A,2234.95737,N,11351.34609,E,0.011,,010414,,,D*72
$GPRMC,134252.00,A,2234.95743,N,11351.34607,E,0.034,,010414,,,D*7B
$GPRMC,134253.00,A,2234.95747,N,11351.34606,E,0.045,,010414,,,D*79
$GPRMC,134254.00,A,2234.95745,N,11351.34605,E,0.059,,010414,,,D*72
$GPRMC,134255.00,A,2234.95740,N,11351.34597,E,0.219,,010414,,,D*78
$GPRMC,134256.00,A,2234.95741,N,11351.34593,E,0.075,,010414,,,D*76
$GPRMC,134257.00,A,2234.95744,N,11351.34596,E,0.028,,010414,,,D*7F
$GPRMC,134258.00,A,2234.95736,N,11351.34580,E,0.178,,010414,,,D*76
$GPRMC,134259.00,A,2234.95731,N,11351.34575,E,0.199,,010414,,,D*75
$GPRMC,134300.00,A,2234.95729,N,11351.34575,E,0.072,,010414,,,D*75
$GPRMC,134301.00,A,2234.95728,N,11351.34577,E,0.233,,010414,,,D*70
$GPRMC,134302.00,A,2234.95727,N,11351.34587,E,0.200,,010414,,,D*73
$GPRMC,134303.00,A,2234.95736,N,11351.34584,E,0.581,,010414,,,D*7F
$GPRMC,134304.00,A,2234.95739,N,11351.34582,E,0.622,,010414,,,D*7B
$GPRMC,134305.00,A,2234.95740,N,11351.34591,E,0.194,,010414,,,D*7C
$GPRMC,134306.00,A,2234.95743,N,11351.34598,E,0.025,,010414,,,D*7E
$GPRMC,134307.00,A,2234.95747,N,11351.34601,E,0.128,,010414,,,D*74
$GPRMC,134308.00,A,2234.95754,N,11351.34611,E,0.057,,010414,,,D*71
$GPRMC,134309.00,A,2234.95766,N,11351.34617,E,0.241,,010414,,,D*72
$GPRMC,134310.00,A,2234.95774,N,11351.34619,E,0.184,,010414,,,D*7D
$GPRMC,134311.00,A,2234.95783,N,11351.34627,E,0.140,,010414,,,D*71
$GPRMC,134312.00,A,2234.95787,N,11351.34631,E,0.016,,010414,,,D*73
$GPRMC,134313.00,A,2234.95794,N,11351.34624,E,0.106,,010414,,,D*74
$GPRMC,134314.00,A,2234.95807,N,11351.34613,E,0.131,,010414,,,D*76
$GPRMC,134315.00,A,2234.95816,N,11351.34612,E,0.133,,010414,,,D*74
$GPRMC,134316.00,A,2234.95822,N,11351.34610,E,0.178,,010414,,,D*7D
$GPRMC,134317.00,A,2234.95825,N,11351.34609,E,0.160,,010414,,,D*7A
$GPRMC,134318.00,A,2234.95832,N,11351.34616,E,0.050,,010414,,,D*7F
$GPRMC,134319.00,A,2234.95838,N,11351.34620,E,0.181,,010414,,,D*7C
$GPRMC,134320.00,A,2234.95843,N,11351.34630,E,0.087,,010414,,,D*7C
$GPRMC,134321.00,A,2234.95850,N,11351.34631,E,0.228,,010414,,,D*79
$GPRMC,134322.00,A,2234.95853,N,11351.34636,E,0.083,,010414,,,D*7D
$GPRMC,134323.00,A,2234.95851,N,11351.34637,E,0.540,,010414,,,D*75
$GPRMC,134324.00,A,2234.95827,N,11351.34655,E,0.797,,010414,,,D*7F
$GPRMC,134325.00,A,2234.95826,N,11351.34658,E,0.056,,010414,,,D*78
$GPRMC,134326.00,A,2234.95831,N,11351.34665,E,0.124,,010414,,,D*77
$GPRMC,134327.00,A,2234.95824,N,11351.34665,E,0.087,,010414,,,D*7A
$GPRMC,134328.00,A,2234.95821,N,11351.34674,E,0.235,,010414,,,D*7B
$GPRMC,134329.00,A,2234.95827,N,11351.34688,E,0.131,,010414,,,D*78
$GPRMC,134330.00,A,2234.95835,N,11351.34684,E,0.081,,010414,,,D*75
$GPRMC,134331.00,A,2234.95832,N,11351.34688,E,0.251,,010414,,,D*70
$GPRMC,134332.00,A,2234.95811,N,11351.34710,E,0.963,,010414,,,D*78
$GPRMC,134333.00,A,2234.95805,N,11351.34738,E,0.995,,010414,,,D*7F
$GPRMC,134334.00,A,2234.95803,N,11351.34754,E,0.558,,010414,,,D*79
$GPRMC,134335.00,A,2234.95807,N,11351.34761,E,0.502,,010414,,,D*75
$GPRMC,134336.00,A,2234.95812,N,11351.34773,E,0.600,,010414,,,D*70
$GPRMC,134337.00,A,2234.95832,N,11351.34763,E,0.213,,010414,,,D*74
$GPRMC,134338.00,A,2234.95845,N,11351.34763,E,0.236,,010414,,,D*7C
$GPRMC,134339.00,A,2234.95849,N,11351.34757,E,0.530,,010414,,,D*77
$GPRMC,134340.00,A,2234.95853,N,11351.34768,E,0.058,,010414,,,D*75
$GPRMC,134341.00,A,2234.95861,N,11351.34785,E,0.331,,010414,,,D*7A
$GPRMC,134342.00,A,2234.95877,N,11351.34775,E,0.086,,010414,,,D*7E
$GPRMC,134343.00,A,2234.95891,N,11351.34785,E,0.097,,010414,,,D*78
$GPRMC,134344.00,A,2234.95901,N,11351.34778,E,0.275,,010414,,,D*7B
$GPRMC,134345.00,A,2234.95900,N,11351.34779,E,0.681,,010414,,,D*75
$GPRMC,134346.00,A,2234.95892,N,11351.34792,E,0.466,,010414,,,D*72
$GPRMC,134347.00,A,2234.95882,N,11351.34804,E,0.170,,010414,,,D*70
$GPRMC,134348.00,A,2234.95886,N,11351.34823,E,0.052,,010414,,,D*7F
$GPRMC,134349.00,A,2234.95892,N,11351.34832,E,0.196,,010414,,,D*72
$GPRMC,134350.00,A,2234.95890,N,11351.34847,E,0.251,,010414,,,D*72
$GPRMC,134351.00,A,2234.95884,N,11351.34865,E,0.135,,010414,,,D*77
$GPRMC,134352.00,A,2234.95875,N,11351.34892,E,0.337,,010414,,,D*72
$GPRMC,134353.00,A,2234.95865,N,11351.34927,E,0.130,,010414,,,D*78
$GPRMC,134354.00,A,2234.95874,N,11351.34933,E,0.172,,010414,,,D*7C
$GPRMC,134355.00,A,2234.95884,N,11351.34939,E,0.180,,010414,,,D*75
$GPRMC,134356.00,A,2234.95887,N,11351.34947,E,0.066,,010414,,,D*75
$GPRMC,134357.00,A,2234.95885,N,11351.34958,E,0.480,,010414,,,D*74
$GPRMC,134358.00,A,2234.95884,N,11351.34973,E,0.923,,010414,,,D*77
$GPRMC,134359.00,A,2234.95877,N,11351.34990,E,1.109,,010414,,,D*76
$GPRMC,134400.00,A,2234.95884,N,11351.34994,E,0.830,,010414,,,D*77
$GPRMC,134401.00,A,2234.95901,N,11351.34969,E,0.135,,010414,,,D*74
$GPRMC,134402.00,A,2234.95907,N,11351.34985,E,0.346,,010414,,,D*75
$GPRMC,134403.00,A,2234.95916,N,11351.34989,E,0.192,,010414,,,D*73
$GPRMC,134404.00,A,2234.95925,N,11351.34977,E,0.391,,010414,,,D*74
$GPRMC,134405.00,A,2234.95938,N,11351.34970,E,0.535,,010414,,,D*76
$GPRMC,134406.00,A,2234.95944,N,11351.34973,E,0.069,,010414,,,D*71
$GPRMC,134407.00,A,2234.95936,N,11351.34974,E,0.783,,010414,,,D*71
$GPRMC,134408.00,A,2234.95932,N,11351.34973,E,0.674,,010414,,,D*74
$GPRMC,134409.00,A,2234.95932,N,11351.34977,E,0.318,,010414,,,D*7E
$GPRMC,134410.00,A,2234.95933,N,11351.34934,E,0.465,,010414,,,D*7D
$GPRMC,134411.00,A,2234.95922,N,11351.34885,E,0.671,,010414,,,D*70
$GPRMC,134412.00,A,2234.95924,N,11351.34831,E,0.354,,010414,,,D*78
$GPRMC,134413.00,A,2234.95921,N,11351.34807,E,0.103,,010414,,,D*79
$GPRMC,134414.00,A,2234.95926,N,11351.34778,E,0.177,,010414,,,D*7D
$GPRMC,134415.00,A,2234.95925,N,11351.34756,E,0.047,,010414,,,D*71
$GPRMC,134416.00,A,2234.95925,N,11351.34730,E,0.066,,010414,,,D*71
$GPRMC,134417.00,A,2234.95926,N,11351.34692,E,0.455,,010414,,,D*7E
$GPRMC,134418.00,A,2234.95931,N,11351.34661,E,0.572,,010414,,,D*7F
$GPRMC,134419.00,A,2234.95945,N,11351.34634,E,0.521,,010414,,,D*7B
$GPRMC,134420.00,A,2234.95949,N,11351.34604,E,0.339,,010414,,,D*71
